% program   : rnx2rtkp(MALIB ver.1.1.0 feature/1.2.0)
% inp file  : data/MALIB_OSS_data_obsnav_240822-1100.obs
% inp file  : data/MALIB_OSS_data_obsnav_240822-1100.nav
% obs start : 2024/08/22 11:00:00.0 GPST (week2328 385200.0s)
% obs end   : 2024/08/22 11:59:59.0 GPST (week2328 388799.0s)
%
% (lat/lon/height=WGS84/ellipsoidal,Q=1:fix,2:float,3:sbas,4:dgps,5:single,6:ppp,ns=# of satellites)
%  GPST          latitude(deg) longitude(deg)  height(m)   Q  ns   sdn(m)   sde(m)   sdu(m)  sdne(m)  sdeu(m)  sdun(m) age(s)  ratio
2328 385200.000   36.068749578  140.128344322   129.0071   5  21   3.5099   3.0507   7.2374  -1.3530   1.1638   2.2744   0.00    0.0
2328 385201.000   36.068749687  140.128344055   129.3125   5  21   3.5099   3.0507   7.2374  -1.3529   1.1659   2.2745   0.00    0.0
2328 385202.000   36.068749937  140.128344071   129.4032   5  21   3.5098   3.0508   7.2374  -1.3528   1.1680   2.2747   0.00    0.0
2328 385203.000   36.068750076  140.128344477   129.4355   5  21   3.5098   3.0508   7.2375  -1.3528   1.1701   2.2748   0.00    0.0
2328 385204.000   36.068749846  140.128344006   129.4554   5  21   3.5098   3.0509   7.2375  -1.3527   1.1721   2.2750   0.00    0.0
2328 385205.000   36.068749604  140.128343642   129.3451   5  21   3.5097   3.0510   7.2375  -1.3526   1.1742   2.2751   0.00    0.0
2328 385206.000   36.068749922  140.128343401   129.3575   5  21   3.5097   3.0510   7.2375  -1.3525   1.1763   2.2752   0.00    0.0
2328 385207.000   36.068749681  140.128343485   129.3339   5  21   3.5097   3.0511   7.2376  -1.3524   1.1784   2.2754   0.00    0.0
2328 385208.000   36.068749672  140.128343557   129.3931   5  21   3.5096   3.0511   7.2376  -1.3523   1.1805   2.2755   0.00    0.0
2328 385209.000   36.068749693  140.128343450   129.3365   5  21   3.5096   3.0512   7.2376  -1.3523   1.1825   2.2757   0.00    0.0
2328 385210.000   36.068750014  140.128343751   129.2953   5  21   3.5096   3.0513   7.2377  -1.3522   1.1846   2.2758   0.00    0.0
2328 385211.000   36.068749691  140.128343364   129.3193   5  21   3.5095   3.0513   7.2377  -1.3521   1.1866   2.2759   0.00    0.0
2328 385212.000   36.068749930  140.128343799   129.3549   5  21   3.5095   3.0514   7.2377  -1.3520   1.1887   2.2761   0.00    0.0
2328 385213.000   36.068750173  140.128343752   129.3705   5  21   3.5094   3.0514   7.2378  -1.3519   1.1908   2.2762   0.00    0.0
2328 385214.000   36.068749559  140.128343006   129.3424   5  21   3.5094   3.0515   7.2378  -1.3519   1.1928   2.2763   0.00    0.0
2328 385215.000   36.068748942  140.128343303   129.3685   5  21   3.5094   3.0516   7.2378  -1.3518   1.1949   2.2765   0.00    0.0
2328 385216.000   36.068749223  140.128343061   129.4452   5  21   3.5093   3.0516   7.2379  -1.3517   1.1969   2.2766   0.00    0.0
2328 385217.000   36.068749358  140.128343504   129.3930   5  21   3.5093   3.0517   7.2379  -1.3516   1.1989   2.2767   0.00    0.0
2328 385218.000   36.068748799  140.128343438   129.4563   5  21   3.5093   3.0517   7.2379  -1.3515   1.2010   2.2769   0.00    0.0
2328 385219.000   36.068748809  140.128343641   129.4704   5  21   3.5092   3.0518   7.2379  -1.3514   1.2030   2.2770   0.00    0.0
2328 385220.000   36.068748788  140.128343046   129.4989   5  21   3.5092   3.0519   7.2380  -1.3514   1.2050   2.2771   0.00    0.0
2328 385221.000   36.068748989  140.128342844   129.4320   5  21   3.5092   3.0519   7.2380  -1.3513   1.2071   2.2773   0.00    0.0
2328 385222.000   36.068750161  140.128342886   129.6257   5  21   3.5091   3.0520   7.2380  -1.3512   1.2091   2.2774   0.00    0.0
2328 385223.000   36.068749691  140.128342668   129.5634   5  21   3.5091   3.0520   7.2381  -1.3511   1.2111   2.2775   0.00    0.0
2328 385224.000   36.068750417  140.128342826   129.4942   5  21   3.5091   3.0521   7.2381  -1.3510   1.2131   2.2776   0.00    0.0
2328 385225.000   36.068751034  140.128343671   129.4391   5  21   3.5090   3.0522   7.2381  -1.3509   1.2151   2.2778   0.00    0.0
2328 385226.000   36.068751233  140.128343741   129.4010   5  21   3.5090   3.0522   7.2381  -1.3509   1.2172   2.2779   0.00    0.0
2328 385227.000   36.068751008  140.128343824   129.3125   5  21   3.5090   3.0523   7.2382  -1.3508   1.2192   2.2780   0.00    0.0
2328 385228.000   36.068750925  140.128343983   129.3793   5  21   3.5089   3.0523   7.2382  -1.3507   1.2212   2.2781   0.00    0.0
2328 385229.000   36.068750077  140.128343273   129.3064   5  21   3.5089   3.0524   7.2382  -1.3506   1.2232   2.2783   0.00    0.0
2328 385230.000   36.068750626  140.128343097   129.3476   5  21   3.5089   3.0525   7.2382  -1.3505   1.2252   2.2784   0.00    0.0
2328 385231.000   36.068750349  140.128343204   129.3406   5  21   3.5088   3.0525   7.2383  -1.3505   1.2272   2.2785   0.00    0.0
2328 385232.000   36.068751267  140.128343073   129.5004   5  21   3.5088   3.0526   7.2383  -1.3504   1.2291   2.2786   0.00    0.0
2328 385233.000   36.068751244  140.128342442   129.4678   5  21   3.5087   3.0527   7.2383  -1.3503   1.2311   2.2788   0.00    0.0
2328 385234.000   36.068751791  140.128341778   129.4153   5  21   3.5087   3.0527   7.2383  -1.3502   1.2331   2.2789   0.00    0.0
2328 385235.000   36.068751775  140.128341892   129.3440   5  21   3.5087   3.0528   7.2384  -1.3501   1.2351   2.2790   0.00    0.0
2328 385236.000   36.068751614  140.128341953   129.3555   5  21   3.5086   3.0529   7.2384  -1.3500   1.2371   2.2791   0.00    0.0
2328 385237.000   36.068751490  140.128342125   129.2756   5  21   3.5086   3.0529   7.2384  -1.3500   1.2391   2.2792   0.00    0.0
2328 385238.000   36.068751370  140.128342353   129.4321   5  21   3.5086   3.0530   7.2384  -1.3499   1.2410   2.2794   0.00    0.0
2328 385239.000   36.068750917  140.128342692   129.4170   5  21   3.5085   3.0530   7.2385  -1.3498   1.2430   2.2795   0.00    0.0
2328 385240.000   36.068751318  140.128343180   129.4650   5  21   3.5085   3.0531   7.2385  -1.3497   1.2450   2.2796   0.00    0.0
2328 385241.000   36.068751390  140.128343065   129.3830   5  21   3.5085   3.0532   7.2385  -1.3496   1.2469   2.2797   0.00    0.0
2328 385242.000   36.068751146  140.128343303   129.2810   5  21   3.5084   3.0532   7.2385  -1.3495   1.2489   2.2798   0.00    0.0
2328 385243.000   36.068751243  140.128343833   129.3785   5  21   3.5084   3.0533   7.2386  -1.3495   1.2509   2.2800   0.00    0.0
2328 385244.000   36.068750912  140.128343449   129.2244   5  21   3.5084   3.0534   7.2386  -1.3494   1.2528   2.2801   0.00    0.0
2328 385245.000   36.068750726  140.128343231   129.3222   5  21   3.5083   3.0534   7.2386  -1.3493   1.2548   2.2802   0.00    0.0
2328 385246.000   36.068750245  140.128342817   129.3760   5  21   3.5083   3.0535   7.2386  -1.3492   1.2567   2.2803   0.00    0.0
2328 385247.000   36.068750280  140.128342583   129.2923   5  21   3.5082   3.0536   7.2387  -1.3491   1.2587   2.2804   0.00    0.0
2328 385248.000   36.068750207  140.128342363   129.2483   5  21   3.5082   3.0536   7.2387  -1.3490   1.2606   2.2805   0.00    0.0
2328 385249.000   36.068750953  140.128342412   129.4063   5  21   3.5082   3.0537   7.2387  -1.3490   1.2625   2.2807   0.00    0.0
2328 385250.000   36.068751149  140.128342624   129.5319   5  21   3.5081   3.0538   7.2387  -1.3489   1.2645   2.2808   0.00    0.0
2328 385251.000   36.068750845  140.128343014   129.5326   5  21   3.5081   3.0538   7.2387  -1.3488   1.2664   2.2809   0.00    0.0
2328 385252.000   36.068750328  140.128342986   129.4699   5  21   3.5081   3.0539   7.2388  -1.3487   1.2684   2.2810   0.00    0.0
2328 385253.000   36.068750290  140.128342957   129.4693   5  21   3.5080   3.0540   7.2388  -1.3486   1.2703   2.2811   0.00    0.0
2328 385254.000   36.068750698  140.128342826   129.4860   5  21   3.5080   3.0540   7.2388  -1.3485   1.2722   2.2812   0.00    0.0
2328 385255.000   36.068751182  140.128342482   129.5426   5  21   3.5079   3.0541   7.2388  -1.3485   1.2741   2.2813   0.00    0.0
2328 385256.000   36.068750945  140.128343277   129.5852   5  21   3.5079   3.0542   7.2389  -1.3484   1.2761   2.2814   0.00    0.0
2328 385257.000   36.068750810  140.128343322   129.4758   5  21   3.5079   3.0542   7.2389  -1.3483   1.2780   2.2815   0.00    0.0
2328 385258.000   36.068750789  140.128343033   129.4553   5  21   3.5078   3.0543   7.2389  -1.3482   1.2799   2.2817   0.00    0.0
2328 385259.000   36.068750981  140.128342771   129.4709   5  21   3.5078   3.0544   7.2389  -1.3481   1.2818   2.2818   0.00    0.0
2328 385260.000   36.068751201  140.128342490   129.4686   5  21   3.5078   3.0544   7.2389  -1.3480   1.2837   2.2819   0.00    0.0
2328 385261.000   36.068751446  140.128341960   129.4782   5  21   3.5077   3.0545   7.2390  -1.3479   1.2856   2.2820   0.00    0.0
2328 385262.000   36.068750751  140.128342314   129.4642   5  21   3.5077   3.0546   7.2390  -1.3479   1.2875   2.2821   0.00    0.0
2328 385263.000   36.068750266  140.128342848   129.3863   5  21   3.5076   3.0546   7.2390  -1.3478   1.2894   2.2822   0.00    0.0
2328 385264.000   36.068750705  140.128342672   129.2951   5  21   3.5076   3.0547   7.2390  -1.3477   1.2913   2.2823   0.00    0.0
2328 385265.000   36.068751415  140.128343174   129.2399   5  21   3.5076   3.0548   7.2390  -1.3476   1.2932   2.2824   0.00    0.0
2328 385266.000   36.068751513  140.128342968   129.1915   5  21   3.5075   3.0548   7.2390  -1.3475   1.2951   2.2825   0.00    0.0
2328 385267.000   36.068751464  140.128342388   129.1672   5  21   3.5075   3.0549   7.2391  -1.3474   1.2970   2.2826   0.00    0.0
2328 385268.000   36.068751352  140.128342701   129.2029   5  21   3.5074   3.0550   7.2391  -1.3474   1.2989   2.2827   0.00    0.0
2328 385269.000   36.068751229  140.128343030   129.2597   5  21   3.5074   3.0550   7.2391  -1.3473   1.3008   2.2828   0.00    0.0
2328 385270.000   36.068751143  140.128342740   129.4340   5  21   3.5074   3.0551   7.2391  -1.3472   1.3027   2.2829   0.00    0.0
2328 385271.000   36.068750734  140.128343147   129.4115   5  21   3.5073   3.0552   7.2391  -1.3471   1.3045   2.2830   0.00    0.0
2328 385272.000   36.068750453  140.128342812   129.3574   5  21   3.5073   3.0553   7.2392  -1.3470   1.3064   2.2831   0.00    0.0
2328 385273.000   36.068750787  140.128342808   129.2914   5  21   3.5072   3.0553   7.2392  -1.3469   1.3083   2.2832   0.00    0.0
2328 385274.000   36.068751096  140.128342532   129.3331   5  21   3.5072   3.0554   7.2392  -1.3469   1.3102   2.2833   0.00    0.0
2328 385275.000   36.068751390  140.128343397   129.3076   5  21   3.5072   3.0555   7.2392  -1.3468   1.3120   2.2834   0.00    0.0
2328 385276.000   36.068751467  140.128343321   129.3875   5  21   3.5071   3.0555   7.2392  -1.3467   1.3139   2.2835   0.00    0.0
2328 385277.000   36.068751768  140.128343204   129.4303   5  21   3.5071   3.0556   7.2392  -1.3466   1.3158   2.2836   0.00    0.0
2328 385278.000   36.068751719  140.128343114   129.4109   5  21   3.5070   3.0557   7.2393  -1.3465   1.3176   2.2837   0.00    0.0
2328 385279.000   36.068751540  140.128342246   129.4367   5  21   3.5070   3.0557   7.2393  -1.3464   1.3195   2.2838   0.00    0.0
2328 385280.000   36.068751452  140.128342821   129.3888   5  21   3.5070   3.0558   7.2393  -1.3464   1.3214   2.2839   0.00    0.0
2328 385281.000   36.068751573  140.128343372   129.4543   5  21   3.5069   3.0559   7.2393  -1.3463   1.3232   2.2840   0.00    0.0
2328 385282.000   36.068751647  140.128343267   129.4105   5  21   3.5069   3.0560   7.2393  -1.3462   1.3251   2.2841   0.00    0.0
2328 385283.000   36.068751868  140.128343377   129.3152   5  21   3.5068   3.0560   7.2393  -1.3461   1.3269   2.2842   0.00    0.0
2328 385284.000   36.068751717  140.128343100   129.3098   5  21   3.5068   3.0561   7.2393  -1.3460   1.3288   2.2843   0.00    0.0
2328 385285.000   36.068751947  140.128343039   129.3145   5  21   3.5068   3.0562   7.2394  -1.3459   1.3306   2.2844   0.00    0.0
2328 385286.000   36.068751590  140.128343402   129.2861   5  21   3.5067   3.0562   7.2394  -1.3458   1.3324   2.2845   0.00    0.0
2328 385287.000   36.068751472  140.128343428   129.2617   5  21   3.5067   3.0563   7.2394  -1.3458   1.3343   2.2846   0.00    0.0
2328 385288.000   36.068751776  140.128343250   129.3140   5  21   3.5066   3.0564   7.2394  -1.3457   1.3361   2.2846   0.00    0.0
2328 385289.000   36.068751984  140.128343522   129.1779   5  21   3.5066   3.0565   7.2394  -1.3456   1.3380   2.2847   0.00    0.0
2328 385290.000   36.068751961  140.128343648   129.2529   5  21   3.5066   3.0565   7.2394  -1.3455   1.3398   2.2848   0.00    0.0
2328 385291.000   36.068752041  140.128343854   129.3489   5  21   3.5065   3.0566   7.2394  -1.3454   1.3416   2.2849   0.00    0.0
2328 385292.000   36.068751640  140.128343977   129.4773   5  21   3.5065   3.0567   7.2395  -1.3453   1.3435   2.2850   0.00    0.0
2328 385293.000   36.068751546  140.128343030   129.5306   5  21   3.5064   3.0568   7.2395  -1.3453   1.3453   2.2851   0.00    0.0
2328 385294.000   36.068751473  140.128342500   129.5414   5  21   3.5064   3.0568   7.2395  -1.3452   1.3471   2.2852   0.00    0.0
2328 385295.000   36.068751494  140.128342270   129.4554   5  21   3.5064   3.0569   7.2395  -1.3451   1.3489   2.2853   0.00    0.0
2328 385296.000   36.068751541  140.128341761   129.2967   5  21   3.5063   3.0570   7.2395  -1.3450   1.3507   2.2854   0.00    0.0
2328 385297.000   36.068751716  140.128341631   129.2858   5  21   3.5063   3.0570   7.2395  -1.3449   1.3526   2.2854   0.00    0.0
2328 385298.000   36.068751535  140.128341755   129.1458   5  21   3.5062   3.0571   7.2395  -1.3448   1.3544   2.2855   0.00    0.0
2328 385299.000   36.068751394  140.128343133   129.1371   5  21   3.5062   3.0572   7.2395  -1.3447   1.3562   2.2856   0.00    0.0
2328 385300.000   36.068751565  140.128343343   129.1236   5  21   3.5062   3.0573   7.2396  -1.3447   1.3580   2.2857   0.00    0.0
2328 385301.000   36.068751629  140.128343721   129.2555   5  21   3.5061   3.0573   7.2396  -1.3446   1.3598   2.2858   0.00    0.0
2328 385302.000   36.068751752  140.128343459   129.2259   5  21   3.5061   3.0574   7.2396  -1.3445   1.3616   2.2859   0.00    0.0
2328 385303.000   36.068751533  140.128342884   129.1255   5  21   3.5060   3.0575   7.2396  -1.3444   1.3634   2.2859   0.00    0.0
2328 385304.000   36.068752053  140.128341893   129.0804   5  21   3.5060   3.0576   7.2396  -1.3443   1.3652   2.2860   0.00    0.0
2328 385305.000   36.068752300  140.128341583   129.2043   5  21   3.5059   3.0576   7.2396  -1.3442   1.3670   2.2861   0.00    0.0
2328 385306.000   36.068752463  140.128341627   129.1462   5  21   3.5059   3.0577   7.2396  -1.3442   1.3688   2.2862   0.00    0.0
2328 385307.000   36.068752916  140.128341496   129.2252   5  21   3.5059   3.0578   7.2396  -1.3441   1.3706   2.2863   0.00    0.0
2328 385308.000   36.068752920  140.128341744   129.2570   5  21   3.5058   3.0579   7.2396  -1.3440   1.3724   2.2864   0.00    0.0
2328 385309.000   36.068752993  140.128342305   129.2942   5  21   3.5058   3.0579   7.2396  -1.3439   1.3742   2.2864   0.00    0.0
2328 385310.000   36.068752397  140.128342685   129.2019   5  21   3.5057   3.0580   7.2397  -1.3438   1.3760   2.2865   0.00    0.0
2328 385311.000   36.068751804  140.128342467   129.2370   5  21   3.5057   3.0581   7.2397  -1.3437   1.3777   2.2866   0.00    0.0
2328 385312.000   36.068751293  140.128342918   129.1977   5  21   3.5056   3.0582   7.2397  -1.3436   1.3795   2.2867   0.00    0.0
2328 385313.000   36.068751614  140.128343081   129.2740   5  21   3.5056   3.0583   7.2397  -1.3436   1.3813   2.2867   0.00    0.0
2328 385314.000   36.068751832  140.128343264   129.3410   5  21   3.5056   3.0583   7.2397  -1.3435   1.3831   2.2868   0.00    0.0
2328 385315.000   36.068751683  140.128342666   129.3799   5  21   3.5055   3.0584   7.2397  -1.3434   1.3849   2.2869   0.00    0.0
2328 385316.000   36.068751886  140.128342606   129.3156   5  21   3.5055   3.0585   7.2397  -1.3433   1.3866   2.2870   0.00    0.0
2328 385317.000   36.068752014  140.128342797   129.3974   5  21   3.5054   3.0586   7.2397  -1.3432   1.3884   2.2871   0.00    0.0
2328 385318.000   36.068752032  140.128342985   129.4699   5  21   3.5054   3.0586   7.2397  -1.3431   1.3902   2.2871   0.00    0.0
2328 385319.000   36.068751923  140.128342593   129.3885   5  21   3.5053   3.0587   7.2397  -1.3430   1.3919   2.2872   0.00    0.0
2328 385320.000   36.068751912  140.128342603   129.4039   5  21   3.5053   3.0588   7.2397  -1.3430   1.3937   2.2873   0.00    0.0
2328 385321.000   36.068751955  140.128342765   129.3638   5  21   3.5053   3.0589   7.2397  -1.3429   1.3955   2.2873   0.00    0.0
2328 385322.000   36.068752054  140.128342616   129.2340   5  21   3.5052   3.0589   7.2398  -1.3428   1.3972   2.2874   0.00    0.0
2328 385323.000   36.068752294  140.128342097   129.2085   5  21   3.5052   3.0590   7.2398  -1.3427   1.3990   2.2875   0.00    0.0
2328 385324.000   36.068752412  140.128342335   129.3059   5  21   3.5051   3.0591   7.2398  -1.3426   1.4007   2.2876   0.00    0.0
2328 385325.000   36.068752683  140.128341859   129.4519   5  21   3.5051   3.0592   7.2398  -1.3425   1.4025   2.2876   0.00    0.0
2328 385326.000   36.068752379  140.128341904   129.4656   5  21   3.5050   3.0593   7.2398  -1.3424   1.4042   2.2877   0.00    0.0
2328 385327.000   36.068752214  140.128341564   129.5509   5  21   3.5050   3.0593   7.2398  -1.3424   1.4060   2.2878   0.00    0.0
2328 385328.000   36.068751850  140.128341932   129.5904   5  21   3.5050   3.0594   7.2398  -1.3423   1.4077   2.2878   0.00    0.0
2328 385329.000   36.068751859  140.128341875   129.5453   5  21   3.5049   3.0595   7.2398  -1.3422   1.4095   2.2879   0.00    0.0
2328 385330.000   36.068752193  140.128341648   129.5375   5  21   3.5049   3.0596   7.2398  -1.3421   1.4112   2.2880   0.00    0.0
2328 385331.000   36.068751833  140.128341558   129.4534   5  21   3.5048   3.0597   7.2398  -1.3420   1.4130   2.2880   0.00    0.0
2328 385332.000   36.068751794  140.128341324   129.3792   5  21   3.5048   3.0597   7.2398  -1.3419   1.4147   2.2881   0.00    0.0
2328 385333.000   36.068751769  140.128340765   129.4563   5  21   3.5047   3.0598   7.2398  -1.3419   1.4164   2.2882   0.00    0.0
2328 385334.000   36.068752266  140.128340871   129.4153   5  21   3.5047   3.0599   7.2398  -1.3418   1.4182   2.2882   0.00    0.0
2328 385335.000   36.068752031  140.128341127   129.4635   5  21   3.5046   3.0600   7.2398  -1.3417   1.4199   2.2883   0.00    0.0
2328 385336.000   36.068751603  140.128340953   129.5018   5  21   3.5046   3.0601   7.2398  -1.3416   1.4216   2.2884   0.00    0.0
2328 385337.000   36.068751365  140.128341004   129.5086   5  21   3.5046   3.0601   7.2398  -1.3415   1.4234   2.2884   0.00    0.0
2328 385338.000   36.068751659  140.128341044   129.5222   5  21   3.5045   3.0602   7.2398  -1.3414   1.4251   2.2885   0.00    0.0
2328 385339.000   36.068751258  140.128340690   129.4956   5  21   3.5045   3.0603   7.2398  -1.3413   1.4268   2.2886   0.00    0.0
2328 385340.000   36.068751552  140.128341092   129.6384   5  21   3.5044   3.0604   7.2398  -1.3413   1.4286   2.2886   0.00    0.0
2328 385341.000   36.068751663  140.128341429   129.6423   5  21   3.5044   3.0605   7.2398  -1.3412   1.4303   2.2887   0.00    0.0
2328 385342.000   36.068751177  140.128341347   129.6192   5  21   3.5043   3.0605   7.2398  -1.3411   1.4320   2.2887   0.00    0.0
2328 385343.000   36.068751257  140.128341938   129.4764   5  21   3.5043   3.0606   7.2398  -1.3410   1.4337   2.2888   0.00    0.0
2328 385344.000   36.068751769  140.128341944   129.5653   5  21   3.5042   3.0607   7.2398  -1.3409   1.4354   2.2889   0.00    0.0
2328 385345.000   36.068752693  140.128341144   129.3281   5  21   3.5042   3.0608   7.2398  -1.3408   1.4371   2.2889   0.00    0.0
2328 385346.000   36.068752904  140.128341919   129.3022   5  21   3.5041   3.0609   7.2398  -1.3407   1.4388   2.2890   0.00    0.0
2328 385347.000   36.068752764  140.128342098   129.2530   5  21   3.5041   3.0610   7.2398  -1.3407   1.4406   2.2890   0.00    0.0
2328 385348.000   36.068753087  140.128342218   129.2996   5  21   3.5041   3.0610   7.2398  -1.3406   1.4423   2.2891   0.00    0.0
2328 385349.000   36.068753062  140.128341740   129.3241   5  21   3.5040   3.0611   7.2398  -1.3405   1.4440   2.2892   0.00    0.0
2328 385350.000   36.068752793  140.128341680   129.3625   5  21   3.5040   3.0612   7.2399  -1.3404   1.4457   2.2892   0.00    0.0
2328 385351.000   36.068752503  140.128341051   129.4013   5  21   3.5039   3.0613   7.2399  -1.3403   1.4474   2.2893   0.00    0.0
2328 385352.000   36.068752417  140.128341047   129.4682   5  21   3.5039   3.0614   7.2399  -1.3402   1.4491   2.2893   0.00    0.0
2328 385353.000   36.068752338  140.128341260   129.5256   5  21   3.5038   3.0614   7.2399  -1.3401   1.4508   2.2894   0.00    0.0
2328 385354.000   36.068752271  140.128341595   129.6113   5  21   3.5038   3.0615   7.2399  -1.3401   1.4525   2.2894   0.00    0.0
2328 385355.000   36.068751816  140.128341573   129.5146   5  21   3.5037   3.0616   7.2398  -1.3400   1.4542   2.2895   0.00    0.0
2328 385356.000   36.068751906  140.128342007   129.4548   5  21   3.5037   3.0617   7.2398  -1.3399   1.4558   2.2895   0.00    0.0
2328 385357.000   36.068751688  140.128341349   129.4618   5  21   3.5036   3.0618   7.2398  -1.3398   1.4575   2.2896   0.00    0.0
2328 385358.000   36.068752089  140.128340659   129.4646   5  21   3.5036   3.0619   7.2398  -1.3397   1.4592   2.2896   0.00    0.0
2328 385359.000   36.068752170  140.128340218   129.4761   5  21   3.5035   3.0620   7.2398  -1.3396   1.4609   2.2897   0.00    0.0
2328 385360.000   36.068752786  140.128340158   129.4524   5  21   3.5035   3.0620   7.2398  -1.3395   1.4626   2.2897   0.00    0.0
2328 385361.000   36.068752641  140.128340182   129.4943   5  21   3.5035   3.0621   7.2398  -1.3395   1.4643   2.2898   0.00    0.0
2328 385362.000   36.068752520  140.128340885   129.5052   5  21   3.5034   3.0622   7.2398  -1.3394   1.4660   2.2898   0.00    0.0
2328 385363.000   36.068752583  140.128340840   129.4972   5  21   3.5034   3.0623   7.2398  -1.3393   1.4676   2.2899   0.00    0.0
2328 385364.000   36.068751726  140.128341044   129.4153   5  21   3.5033   3.0624   7.2398  -1.3392   1.4693   2.2899   0.00    0.0
2328 385365.000   36.068751584  140.128341527   129.4576   5  21   3.5033   3.0625   7.2398  -1.3391   1.4710   2.2900   0.00    0.0
2328 385366.000   36.068751702  140.128340552   129.5785   5  21   3.5032   3.0625   7.2398  -1.3390   1.4727   2.2900   0.00    0.0
2328 385367.000   36.068751779  140.128339761   129.6218   5  21   3.5032   3.0626   7.2398  -1.3390   1.4743   2.2901   0.00    0.0
2328 385368.000   36.068751768  140.128339133   129.5543   5  21   3.5031   3.0627   7.2398  -1.3389   1.4760   2.2901   0.00    0.0
2328 385369.000   36.068751383  140.128339105   129.3953   5  21   3.5031   3.0628   7.2398  -1.3388   1.4777   2.2902   0.00    0.0
2328 385370.000   36.068751497  140.128339482   129.3139   5  21   3.5030   3.0629   7.2398  -1.3387   1.4793   2.2902   0.00    0.0
2328 385371.000   36.068751733  140.128339560   129.2923   5  21   3.5030   3.0630   7.2398  -1.3386   1.4810   2.2903   0.00    0.0
2328 385372.000   36.068752315  140.128339942   129.3472   5  21   3.5029   3.0631   7.2398  -1.3385   1.4827   2.2903   0.00    0.0
2328 385373.000   36.068752691  140.128339865   129.3587   5  21   3.5029   3.0631   7.2398  -1.3384   1.4843   2.2903   0.00    0.0
2328 385374.000   36.068752430  140.128339855   129.4447   5  21   3.5028   3.0632   7.2398  -1.3384   1.4860   2.2904   0.00    0.0
2328 385375.000   36.068752721  140.128340031   129.4741   5  21   3.5028   3.0633   7.2398  -1.3383   1.4876   2.2904   0.00    0.0
2328 385376.000   36.068752551  140.128340168   129.4633   5  21   3.5027   3.0634   7.2398  -1.3382   1.4893   2.2905   0.00    0.0
2328 385377.000   36.068753161  140.128340136   129.4563   5  21   3.5027   3.0635   7.2398  -1.3381   1.4909   2.2905   0.00    0.0
2328 385378.000   36.068752967  140.128340725   129.4864   5  21   3.5026   3.0636   7.2398  -1.3380   1.4926   2.2906   0.00    0.0
2328 385379.000   36.068752628  140.128340480   129.2819   5  21   3.5026   3.0637   7.2398  -1.3379   1.4942   2.2906   0.00    0.0
2328 385380.000   36.068752482  140.128340714   129.1760   5  21   3.5025   3.0638   7.2398  -1.3378   1.4959   2.2906   0.00    0.0
2328 385381.000   36.068752384  140.128341010   129.2120   5  21   3.5025   3.0638   7.2398  -1.3378   1.4975   2.2907   0.00    0.0
2328 385382.000   36.068752780  140.128340857   129.2706   5  21   3.5024   3.0639   7.2398  -1.3377   1.4992   2.2907   0.00    0.0
2328 385383.000   36.068752565  140.128340667   129.2293   5  21   3.5024   3.0640   7.2397  -1.3376   1.5008   2.2907   0.00    0.0
2328 385384.000   36.068752947  140.128340654   129.4164   5  21   3.5023   3.0641   7.2397  -1.3375   1.5025   2.2908   0.00    0.0
2328 385385.000   36.068753514  140.128340564   129.4696   5  21   3.5023   3.0642   7.2397  -1.3374   1.5041   2.2908   0.00    0.0
2328 385386.000   36.068753315  140.128340648   129.4045   5  21   3.5022   3.0643   7.2397  -1.3373   1.5057   2.2909   0.00    0.0
2328 385387.000   36.068753528  140.128340559   129.3543   5  21   3.5022   3.0644   7.2397  -1.3372   1.5074   2.2909   0.00    0.0
2328 385388.000   36.068753357  140.128340978   129.3208   5  21   3.5022   3.0645   7.2397  -1.3372   1.5090   2.2909   0.00    0.0
2328 385389.000   36.068752359  140.128340931   129.0862   5  21   3.5021   3.0646   7.2397  -1.3371   1.5106   2.2910   0.00    0.0
2328 385390.000   36.068752621  140.128341036   129.2182   5  21   3.5021   3.0646   7.2397  -1.3370   1.5123   2.2910   0.00    0.0
2328 385391.000   36.068753047  140.128340985   129.2924   5  21   3.5020   3.0647   7.2397  -1.3369   1.5139   2.2910   0.00    0.0
2328 385392.000   36.068752965  140.128340586   129.3333   5  21   3.5020   3.0648   7.2397  -1.3368   1.5155   2.2911   0.00    0.0
2328 385393.000   36.068753031  140.128340874   129.3248   5  21   3.5019   3.0649   7.2397  -1.3367   1.5172   2.2911   0.00    0.0
2328 385394.000   36.068752922  140.128340892   129.4023   5  21   3.5019   3.0650   7.2397  -1.3366   1.5188   2.2911   0.00    0.0
2328 385395.000   36.068753127  140.128340569   129.3990   5  21   3.5018   3.0651   7.2397  -1.3366   1.5204   2.2912   0.00    0.0
2328 385396.000   36.068752920  140.128340007   129.3892   5  21   3.5018   3.0652   7.2396  -1.3365   1.5220   2.2912   0.00    0.0
2328 385397.000   36.068753112  140.128340003   129.3650   5  21   3.5017   3.0653   7.2396  -1.3364   1.5236   2.2912   0.00    0.0
2328 385398.000   36.068753196  140.128339964   129.4599   5  21   3.5017   3.0654   7.2396  -1.3363   1.5253   2.2912   0.00    0.0
2328 385399.000   36.068753535  140.128340197   129.4092   5  21   3.5016   3.0655   7.2396  -1.3362   1.5269   2.2913   0.00    0.0
2328 385400.000   36.068754043  140.128339690   129.5399   5  21   3.5016   3.0655   7.2396  -1.3361   1.5285   2.2913   0.00    0.0
2328 385401.000   36.068754604  140.128340077   129.4922   5  21   3.5015   3.0656   7.2396  -1.3360   1.5301   2.2913   0.00    0.0
2328 385402.000   36.068754493  140.128340320   129.5382   5  21   3.5015   3.0657   7.2396  -1.3360   1.5317   2.2913   0.00    0.0
2328 385403.000   36.068754154  140.128340381   129.5717   5  21   3.5014   3.0658   7.2396  -1.3359   1.5333   2.2914   0.00    0.0
2328 385404.000   36.068754072  140.128340641   129.5320   5  21   3.5014   3.0659   7.2396  -1.3358   1.5349   2.2914   0.00    0.0
2328 385405.000   36.068753178  140.128341100   129.4201   5  21   3.5013   3.0660   7.2395  -1.3357   1.5365   2.2914   0.00    0.0
2328 385406.000   36.068752963  140.128341669   129.3755   5  21   3.5012   3.0661   7.2395  -1.3356   1.5381   2.2915   0.00    0.0
2328 385407.000   36.068753118  140.128340961   129.2585   5  21   3.5012   3.0662   7.2395  -1.3355   1.5397   2.2915   0.00    0.0
2328 385408.000   36.068753336  140.128340774   129.3319   5  21   3.5011   3.0663   7.2395  -1.3355   1.5413   2.2915   0.00    0.0
2328 385409.000   36.068753969  140.128341165   129.3718   5  21   3.5011   3.0664   7.2395  -1.3354   1.5429   2.2915   0.00    0.0
2328 385410.000   36.068753650  140.128341300   129.3971   5  21   3.5010   3.0665   7.2395  -1.3353   1.5445   2.2915   0.00    0.0
2328 385411.000   36.068753384  140.128341241   129.5132   5  21   3.5010   3.0666   7.2395  -1.3352   1.5461   2.2916   0.00    0.0
2328 385412.000   36.068753011  140.128341587   129.4557   5  21   3.5009   3.0667   7.2395  -1.3351   1.5477   2.2916   0.00    0.0
2328 385413.000   36.068753095  140.128341190   129.4569   5  21   3.5009   3.0667   7.2394  -1.3350   1.5493   2.2916   0.00    0.0
2328 385414.000   36.068753112  140.128341251   129.3821   5  21   3.5008   3.0668   7.2394  -1.3349   1.5509   2.2916   0.00    0.0
2328 385415.000   36.068753140  140.128341535   129.3485   5  21   3.5008   3.0669   7.2394  -1.3349   1.5525   2.2916   0.00    0.0
2328 385416.000   36.068753111  140.128341840   129.4158   5  21   3.5007   3.0670   7.2394  -1.3348   1.5541   2.2917   0.00    0.0
2328 385417.000   36.068753752  140.128342210   129.4762   5  21   3.5007   3.0671   7.2394  -1.3347   1.5557   2.2917   0.00    0.0
2328 385418.000   36.068753248  140.128342433   129.6214   5  21   3.5006   3.0672   7.2394  -1.3346   1.5572   2.2917   0.00    0.0
2328 385419.000   36.068753432  140.128341820   129.5421   5  21   3.5006   3.0673   7.2394  -1.3345   1.5588   2.2917   0.00    0.0
2328 385420.000   36.068752868  140.128341561   129.5449   5  21   3.5005   3.0674   7.2394  -1.3344   1.5604   2.2917   0.00    0.0
2328 385421.000   36.068753202  140.128342044   129.6582   5  21   3.5005   3.0675   7.2393  -1.3343   1.5620   2.2917   0.00    0.0
2328 385422.000   36.068753762  140.128341503   129.8022   5  21   3.5004   3.0676   7.2393  -1.3343   1.5636   2.2918   0.00    0.0
2328 385423.000   36.068753822  140.128341483   129.8189   5  21   3.5004   3.0677   7.2393  -1.3342   1.5651   2.2918   0.00    0.0
2328 385424.000   36.068753953  140.128341700   129.6809   5  21   3.5003   3.0678   7.2393  -1.3341   1.5667   2.2918   0.00    0.0
2328 385425.000   36.068754076  140.128341392   129.6394   5  21   3.5003   3.0679   7.2393  -1.3340   1.5683   2.2918   0.00    0.0
2328 385426.000   36.068754202  140.128341166   129.6426   5  21   3.5002   3.0680   7.2393  -1.3339   1.5699   2.2918   0.00    0.0
2328 385427.000   36.068754591  140.128341232   129.6260   5  21   3.5002   3.0681   7.2392  -1.3338   1.5714   2.2918   0.00    0.0
2328 385428.000   36.068754265  140.128341672   129.5514   5  21   3.5001   3.0682   7.2392  -1.3338   1.5730   2.2918   0.00    0.0
2328 385429.000   36.068753821  140.128341778   129.4895   5  21   3.5001   3.0683   7.2392  -1.3337   1.5746   2.2919   0.00    0.0
2328 385430.000   36.068753531  140.128341427   129.4624   5  21   3.5000   3.0684   7.2392  -1.3336   1.5761   2.2919   0.00    0.0
2328 385431.000   36.068753080  140.128340880   129.5208   5  21   3.4999   3.0685   7.2392  -1.3335   1.5777   2.2919   0.00    0.0
2328 385432.000   36.068753121  140.128340446   129.6034   5  21   3.4999   3.0686   7.2392  -1.3334   1.5793   2.2919   0.00    0.0
2328 385433.000   36.068753148  140.128340273   129.5938   5  21   3.4998   3.0687   7.2391  -1.3333   1.5808   2.2919   0.00    0.0
2328 385434.000   36.068753109  140.128340515   129.4872   5  21   3.4998   3.0687   7.2391  -1.3332   1.5824   2.2919   0.00    0.0
2328 385435.000   36.068753176  140.128340584   129.4785   5  21   3.4997   3.0688   7.2391  -1.3332   1.5840   2.2919   0.00    0.0
2328 385436.000   36.068753664  140.128341173   129.7099   5  21   3.4997   3.0689   7.2391  -1.3331   1.5855   2.2919   0.00    0.0
2328 385437.000   36.068754011  140.128341121   129.6909   5  21   3.4996   3.0690   7.2391  -1.3330   1.5871   2.2919   0.00    0.0
2328 385438.000   36.068754001  140.128340819   129.6673   5  21   3.4996   3.0691   7.2390  -1.3329   1.5886   2.2919   0.00    0.0
2328 385439.000   36.068754015  140.128340476   129.7018   5  21   3.4995   3.0692   7.2390  -1.3328   1.5902   2.2919   0.00    0.0
2328 385440.000   36.068754257  140.128340103   129.6535   5  21   3.4995   3.0693   7.2390  -1.3327   1.5917   2.2919   0.00    0.0
2328 385441.000   36.068754509  140.128341003   129.5725   5  21   3.4994   3.0694   7.2390  -1.3326   1.5933   2.2919   0.00    0.0
2328 385442.000   36.068754300  140.128340365   129.5433   5  21   3.4994   3.0695   7.2390  -1.3326   1.5948   2.2920   0.00    0.0
2328 385443.000   36.068753830  140.128340070   129.5598   5  21   3.4993   3.0696   7.2390  -1.3325   1.5964   2.2920   0.00    0.0
2328 385444.000   36.068753869  140.128340348   129.5835   5  21   3.4993   3.0697   7.2389  -1.3324   1.5979   2.2920   0.00    0.0
2328 385445.000   36.068753540  140.128340737   129.6313   5  21   3.4992   3.0698   7.2389  -1.3323   1.5995   2.2920   0.00    0.0
2328 385446.000   36.068753600  140.128340439   129.6833   5  21   3.4991   3.0699   7.2389  -1.3322   1.6010   2.2920   0.00    0.0
2328 385447.000   36.068753346  140.128340418   129.6919   5  21   3.4991   3.0700   7.2389  -1.3321   1.6025   2.2920   0.00    0.0
2328 385448.000   36.068753376  140.128340420   129.6572   5  21   3.4990   3.0701   7.2389  -1.3321   1.6041   2.2920   0.00    0.0
2328 385449.000   36.068753517  140.128340055   129.7236   5  21   3.4990   3.0702   7.2388  -1.3320   1.6056   2.2920   0.00    0.0
2328 385450.000   36.068753578  140.128339889   129.7737   5  21   3.4989   3.0703   7.2388  -1.3319   1.6072   2.2920   0.00    0.0
2328 385451.000   36.068754043  140.128339763   129.7808   5  21   3.4989   3.0704   7.2388  -1.3318   1.6087   2.2920   0.00    0.0
2328 385452.000   36.068753973  140.128339437   129.7255   5  21   3.4988   3.0705   7.2388  -1.3317   1.6102   2.2920   0.00    0.0
2328 385453.000   36.068754102  140.128339675   129.5769   5  21   3.4988   3.0706   7.2387  -1.3316   1.6118   2.2920   0.00    0.0
2328 385454.000   36.068754388  140.128339707   129.5154   5  21   3.4987   3.0707   7.2387  -1.3315   1.6133   2.2920   0.00    0.0
2328 385455.000   36.068754284  140.128340377   129.5302   5  21   3.4986   3.0708   7.2387  -1.3315   1.6148   2.2920   0.00    0.0
2328 385456.000   36.068753726  140.128340515   129.5130   5  21   3.4986   3.0709   7.2387  -1.3314   1.6163   2.2919   0.00    0.0
2328 385457.000   36.068753425  140.128340440   129.5214   5  21   3.4985   3.0710   7.2387  -1.3313   1.6179   2.2919   0.00    0.0
2328 385458.000   36.068753554  140.128340554   129.5067   5  21   3.4985   3.0711   7.2386  -1.3312   1.6194   2.2919   0.00    0.0
2328 385459.000   36.068753640  140.128340617   129.6602   5  21   3.4984   3.0712   7.2386  -1.3311   1.6209   2.2919   0.00    0.0
2328 385460.000   36.068753368  140.128340034   129.6822   5  21   3.4984   3.0713   7.2386  -1.3310   1.6224   2.2919   0.00    0.0
2328 385461.000   36.068753363  140.128339457   129.8414   5  21   3.4983   3.0714   7.2386  -1.3310   1.6240   2.2919   0.00    0.0
2328 385462.000   36.068753599  140.128340135   129.7679   5  21   3.4983   3.0715   7.2385  -1.3309   1.6255   2.2919   0.00    0.0
2328 385463.000   36.068754005  140.128339910   129.8990   5  21   3.4982   3.0716   7.2385  -1.3308   1.6270   2.2919   0.00    0.0
2328 385464.000   36.068753749  140.128339589   129.9229   5  21   3.4981   3.0717   7.2385  -1.3307   1.6285   2.2919   0.00    0.0
2328 385465.000   36.068753352  140.128339493   129.8310   5  21   3.4981   3.0718   7.2385  -1.3306   1.6300   2.2919   0.00    0.0
2328 385466.000   36.068753262  140.128339801   129.8646   5  21   3.4980   3.0719   7.2384  -1.3305   1.6315   2.2919   0.00    0.0
2328 385467.000   36.068752790  140.128340244   129.8254   5  21   3.4980   3.0720   7.2384  -1.3305   1.6331   2.2919   0.00    0.0
2328 385468.000   36.068752989  140.128340213   129.8379   5  21   3.4979   3.0721   7.2384  -1.3304   1.6346   2.2919   0.00    0.0
2328 385469.000   36.068753270  140.128340372   129.8147   5  21   3.4979   3.0722   7.2384  -1.3303   1.6361   2.2918   0.00    0.0
2328 385470.000   36.068753247  140.128340854   129.7511   5  21   3.4978   3.0723   7.2383  -1.3302   1.6376   2.2918   0.00    0.0
2328 385471.000   36.068753182  140.128340922   129.7157   5  21   3.4978   3.0724   7.2383  -1.3301   1.6391   2.2918   0.00    0.0
2328 385472.000   36.068753432  140.128340941   129.6954   5  21   3.4977   3.0726   7.2383  -1.3300   1.6406   2.2918   0.00    0.0
2328 385473.000   36.068753651  140.128340238   129.7089   5  21   3.4976   3.0727   7.2383  -1.3300   1.6421   2.2918   0.00    0.0
2328 385474.000   36.068753786  140.128340445   129.7595   5  21   3.4976   3.0728   7.2382  -1.3299   1.6436   2.2918   0.00    0.0
2328 385475.000   36.068753721  140.128340068   129.7522   5  21   3.4975   3.0729   7.2382  -1.3298   1.6451   2.2918   0.00    0.0
2328 385476.000   36.068754135  140.128340204   129.7249   5  20   3.5498   3.2214   7.9577  -1.0869  -0.6964   1.8013   0.00    0.0
2328 385477.000   36.068753809  140.128340542   129.6573   5  20   3.5497   3.2214   7.9579  -1.0869  -0.6924   1.8014   0.00    0.0
2328 385478.000   36.068753417  140.128340807   129.6484   5  20   3.5496   3.2214   7.9581  -1.0870  -0.6884   1.8015   0.00    0.0
2328 385479.000   36.068753207  140.128341073   129.6994   5  20   3.5495   3.2214   7.9583  -1.0871  -0.6844   1.8015   0.00    0.0
2328 385480.000   36.068752598  140.128340594   129.6069   5  20   3.5494   3.2214   7.9585  -1.0872  -0.6804   1.8016   0.00    0.0
2328 385481.000   36.068752531  140.128340571   129.6038   5  20   3.5493   3.2214   7.9588  -1.0873  -0.6763   1.8016   0.00    0.0
2328 385482.000   36.068751888  140.128339902   129.5560   5  20   3.5492   3.2214   7.9590  -1.0873  -0.6723   1.8017   0.00    0.0
2328 385483.000   36.068751437  140.128339570   129.4094   5  20   3.5491   3.2214   7.9592  -1.0874  -0.6682   1.8018   0.00    0.0
2328 385484.000   36.068751313  140.128339804   129.4666   5  20   3.5490   3.2214   7.9594  -1.0875  -0.6640   1.8018   0.00    0.0
2328 385485.000   36.068751835  140.128339411   129.5919   5  20   3.5490   3.2214   7.9596  -1.0876  -0.6599   1.8019   0.00    0.0
2328 385486.000   36.068752011  140.128339437   129.6394   5  20   3.5489   3.2214   7.9598  -1.0877  -0.6557   1.8019   0.00    0.0
2328 385487.000   36.068752460  140.128339958   129.7280   5  20   3.5488   3.2214   7.9600  -1.0877  -0.6515   1.8020   0.00    0.0
2328 385488.000   36.068752448  140.128340823   129.7387   5  20   3.5487   3.2214   7.9603  -1.0878  -0.6472   1.8020   0.00    0.0
2328 385489.000   36.068752920  140.128341139   129.8214   5  20   3.5486   3.2214   7.9605  -1.0879  -0.6430   1.8021   0.00    0.0
2328 385490.000   36.068753119  140.128341315   129.8040   5  20   3.5485   3.2214   7.9607  -1.0880  -0.6387   1.8021   0.00    0.0
2328 385491.000   36.068753174  140.128341586   129.8431   5  20   3.5484   3.2214   7.9609  -1.0881  -0.6343   1.8022   0.00    0.0
2328 385492.000   36.068753028  140.128341887   129.7444   5  20   3.5483   3.2214   7.9611  -1.0881  -0.6300   1.8022   0.00    0.0
2328 385493.000   36.068752256  140.128342431   129.7264   5  20   3.5482   3.2214   7.9613  -1.0882  -0.6256   1.8023   0.00    0.0
2328 385494.000   36.068752154  140.128341853   129.7439   5  20   3.5481   3.2214   7.9616  -1.0883  -0.6212   1.8023   0.00    0.0
2328 385495.000   36.068752860  140.128341767   129.6717   5  20   3.5481   3.2214   7.9618  -1.0884  -0.6167   1.8024   0.00    0.0
2328 385496.000   36.068753083  140.128341055   129.6626   5  20   3.5480   3.2214   7.9620  -1.0884  -0.6122   1.8024   0.00    0.0
2328 385497.000   36.068753092  140.128340786   129.6059   5  20   3.5479   3.2214   7.9622  -1.0885  -0.6077   1.8025   0.00    0.0
2328 385498.000   36.068752940  140.128341740   129.5119   5  20   3.5478   3.2214   7.9624  -1.0886  -0.6032   1.8025   0.00    0.0
2328 385499.000   36.068752610  140.128341128   129.5256   5  20   3.5477   3.2214   7.9626  -1.0887  -0.5986   1.8026   0.00    0.0
2328 385500.000   36.068751937  140.128340743   129.6276   5  20   3.5476   3.2214   7.9628  -1.0888  -0.5939   1.8026   0.00    0.0
2328 385501.000   36.068752097  140.128340757   129.5881   5  20   3.5475   3.2214   7.9630  -1.0888  -0.5893   1.8026   0.00    0.0
2328 385502.000   36.068752517  140.128341020   129.6822   5  20   3.5474   3.2214   7.9633  -1.0889  -0.5846   1.8027   0.00    0.0
2328 385503.000   36.068752420  140.128340386   129.5669   5  20   3.5473   3.2214   7.9635  -1.0890  -0.5798   1.8027   0.00    0.0
2328 385504.000   36.068753433  140.128340742   129.6871   5  20   3.5472   3.2214   7.9637  -1.0891  -0.5750   1.8028   0.00    0.0
2328 385505.000   36.068753814  140.128340385   129.8886   5  20   3.5471   3.2214   7.9639  -1.0891  -0.5702   1.8028   0.00    0.0
2328 385506.000   36.068753411  140.128340909   129.8914   5  20   3.5471   3.2214   7.9641  -1.0892  -0.5654   1.8029   0.00    0.0
2328 385507.000   36.068753764  140.128341152   129.9332   5  20   3.5470   3.2214   7.9643  -1.0893  -0.5605   1.8029   0.00    0.0
2328 385508.000   36.068753801  140.128341315   129.7876   5  20   3.5469   3.2214   7.9645  -1.0894  -0.5555   1.8029   0.00    0.0
2328 385509.000   36.068753429  140.128341234   129.6451   5  20   3.5468   3.2214   7.9647  -1.0895  -0.5505   1.8030   0.00    0.0
2328 385510.000   36.068753212  140.128340901   129.5415   5  20   3.5467   3.2214   7.9650  -1.0895  -0.5455   1.8030   0.00    0.0
2328 385511.000   36.068753198  140.128340411   129.3716   5  20   3.5466   3.2214   7.9652  -1.0896  -0.5404   1.8030   0.00    0.0
2328 385512.000   36.068752966  140.128341203   129.2926   5  20   3.5465   3.2214   7.9654  -1.0897  -0.5352   1.8031   0.00    0.0
2328 385513.000   36.068752776  140.128341383   129.1858   5  20   3.5464   3.2214   7.9656  -1.0898  -0.5300   1.8031   0.00    0.0
2328 385514.000   36.068752323  140.128341322   129.1288   5  20   3.5463   3.2214   7.9658  -1.0898  -0.5248   1.8031   0.00    0.0
2328 385515.000   36.068752384  140.128341999   129.3486   5  20   3.5462   3.2214   7.9660  -1.0899  -0.5195   1.8032   0.00    0.0
2328 385516.000   36.068752726  140.128341817   129.3278   5  20   3.5461   3.2214   7.9662  -1.0900  -0.5142   1.8032   0.00    0.0
2328 385517.000   36.068752863  140.128341746   129.4950   5  20   3.5460   3.2214   7.9664  -1.0901  -0.5088   1.8032   0.00    0.0
2328 385518.000   36.068752559  140.128341538   129.6060   5  20   3.5460   3.2215   7.9666  -1.0902  -0.5033   1.8033   0.00    0.0
2328 385519.000   36.068752750  140.128341026   129.7384   5  20   3.5459   3.2215   7.9668  -1.0902  -0.4978   1.8033   0.00    0.0
2328 385520.000   36.068753439  140.128340830   129.9054   5  20   3.5458   3.2215   7.9671  -1.0903  -0.4922   1.8033   0.00    0.0
2328 385521.000   36.068753108  140.128340729   129.9624   5  20   3.5457   3.2215   7.9673  -1.0904  -0.4865   1.8033   0.00    0.0
2328 385522.000   36.068753223  140.128341411   129.9389   5  20   3.5456   3.2215   7.9675  -1.0905  -0.4808   1.8034   0.00    0.0
2328 385523.000   36.068753300  140.128341528   129.8144   5  20   3.5455   3.2215   7.9677  -1.0905  -0.4750   1.8034   0.00    0.0
2328 385524.000   36.068753143  140.128341232   129.7469   5  20   3.5454   3.2215   7.9679  -1.0906  -0.4691   1.8034   0.00    0.0
2328 385525.000   36.068752584  140.128340842   129.5946   5  20   3.5453   3.2215   7.9681  -1.0907  -0.4632   1.8034   0.00    0.0
2328 385526.000   36.068752581  140.128341139   129.5226   5  20   3.5452   3.2215   7.9683  -1.0908  -0.4572   1.8035   0.00    0.0
2328 385527.000   36.068752573  140.128341081   129.5718   5  20   3.5451   3.2215   7.9685  -1.0908  -0.4511   1.8035   0.00    0.0
2328 385528.000   36.068753107  140.128340852   129.5107   5  20   3.5450   3.2215   7.9687  -1.0909  -0.4449   1.8035   0.00    0.0
2328 385529.000   36.068753120  140.128341040   129.3912   5  20   3.5449   3.2215   7.9689  -1.0910  -0.4386   1.8035   0.00    0.0
2328 385530.000   36.068752721  140.128341292   129.4008   5  20   3.5448   3.2215   7.9691  -1.0911  -0.4322   1.8036   0.00    0.0
2328 385531.000   36.068753269  140.128341828   129.4770   5  20   3.5448   3.2215   7.9694  -1.0912  -0.4258   1.8036   0.00    0.0
2328 385532.000   36.068753379  140.128341580   129.4716   5  20   3.5447   3.2215   7.9696  -1.0912  -0.4192   1.8036   0.00    0.0
2328 385533.000   36.068753555  140.128341354   129.5818   5  20   3.5446   3.2215   7.9698  -1.0913  -0.4126   1.8036   0.00    0.0
2328 385534.000   36.068753890  140.128341590   129.5856   5  20   3.5445   3.2215   7.9700  -1.0914  -0.4058   1.8036   0.00    0.0
2328 385535.000   36.068753796  140.128341486   129.6976   5  20   3.5444   3.2216   7.9702  -1.0915  -0.3989   1.8037   0.00    0.0
2328 385536.000   36.068753576  140.128341428   129.7238   5  20   3.5443   3.2216   7.9704  -1.0915  -0.3919   1.8037   0.00    0.0
2328 385537.000   36.068753986  140.128341190   129.5612   5  20   3.5442   3.2216   7.9706  -1.0916  -0.3847   1.8037   0.00    0.0
2328 385538.000   36.068753692  140.128341631   129.4555   5  20   3.5441   3.2216   7.9708  -1.0917  -0.3774   1.8037   0.00    0.0
2328 385539.000   36.068753666  140.128341503   129.4141   5  20   3.5440   3.2216   7.9710  -1.0918  -0.3700   1.8037   0.00    0.0
2328 385540.000   36.068753443  140.128341736   129.4967   5  20   3.5439   3.2216   7.9712  -1.0918  -0.3624   1.8037   0.00    0.0
2328 385541.000   36.068752844  140.128341918   129.4786   5  20   3.5438   3.2216   7.9714  -1.0919  -0.3547   1.8037   0.00    0.0
2328 385542.000   36.068752446  140.128342293   129.4803   5  20   3.5437   3.2216   7.9716  -1.0920  -0.3468   1.8038   0.00    0.0
2328 385543.000   36.068752432  140.128342373   129.4260   5  20   3.5436   3.2216   7.9718  -1.0921  -0.3387   1.8038   0.00    0.0
2328 385544.000   36.068751904  140.128342495   129.3051   5  20   3.5435   3.2216   7.9720  -1.0922  -0.3304   1.8038   0.00    0.0
2328 385545.000   36.068752835  140.128342348   129.2891   5  20   3.5434   3.2216   7.9722  -1.0922  -0.3218   1.8038   0.00    0.0
2328 385546.000   36.068752881  140.128342363   129.2737   5  20   3.5434   3.2216   7.9724  -1.0923  -0.3131   1.8038   0.00    0.0
2328 385547.000   36.068753040  140.128342239   129.5222   5  20   3.5433   3.2217   7.9726  -1.0924  -0.3041   1.8038   0.00    0.0
2328 385548.000   36.068753440  140.128342328   129.5683   5  20   3.5432   3.2217   7.9728  -1.0925  -0.2948   1.8038   0.00    0.0
2328 385549.000   36.068753727  140.128342704   129.5659   5  20   3.5431   3.2217   7.9730  -1.0925  -0.2852   1.8038   0.00    0.0
2328 385550.000   36.068753944  140.128342950   129.5638   5  20   3.5430   3.2217   7.9733  -1.0926  -0.2753   1.8038   0.00    0.0
2328 385551.000   36.068754650  140.128342727   129.6456   5  20   3.5429   3.2217   7.9735  -1.0927  -0.2650   1.8038   0.00    0.0
2328 385552.000   36.068754962  140.128342865   129.6145   5  20   3.5428   3.2217   7.9737  -1.0928  -0.2543   1.8038   0.00    0.0
2328 385553.000   36.068754806  140.128342677   129.5147   5  20   3.5427   3.2217   7.9739  -1.0928  -0.2431   1.8038   0.00    0.0
2328 385554.000   36.068754707  140.128342679   129.5800   5  20   3.5426   3.2217   7.9741  -1.0929  -0.2314   1.8038   0.00    0.0
2328 385555.000   36.068754661  140.128342604   129.4080   5  20   3.5425   3.2217   7.9743  -1.0930  -0.2190   1.8038   0.00    0.0
2328 385556.000   36.068754851  140.128342860   129.6720   5  20   3.5424   3.2217   7.9745  -1.0931  -0.2060   1.8038   0.00    0.0
2328 385557.000   36.068755112  140.128342374   129.6900   5  20   3.5423   3.2218   7.9747  -1.0931  -0.1920   1.8038   0.00    0.0
2328 385558.000   36.068754894  140.128342124   129.6944   5  20   3.5422   3.2218   7.9749  -1.0932  -0.1769   1.8038   0.00    0.0
2328 385559.000   36.068754986  140.128342016   129.7660   5  20   3.5421   3.2218   7.9751  -1.0933  -0.1604   1.8038   0.00    0.0
2328 385560.000   36.068754993  140.128342180   129.6901   5  20   3.5420   3.2218   7.9753  -1.0934  -0.1419   1.8038   0.00    0.0
2328 385561.000   36.068754666  140.128342286   129.7810   5  20   3.5419   3.2218   7.9755  -1.0935  -0.1207   1.8038   0.00    0.0
2328 385562.000   36.068754899  140.128342147   129.7300   5  20   3.5419   3.2218   7.9757  -1.0935  -0.0949   1.8038   0.00    0.0
2328 385563.000   36.068755239  140.128341970   129.8480   5  20   3.5418   3.2218   7.9759  -1.0936  -0.0586   1.8038   0.00    0.0
2328 385564.000   36.068754463  140.128342017   129.7073   5  20   3.5417   3.2218   7.9761  -1.0937   0.0462   1.8038   0.00    0.0
2328 385565.000   36.068754540  140.128342078   129.5491   5  20   3.5416   3.2219   7.9763  -1.0938   0.0878   1.8038   0.00    0.0
2328 385566.000   36.068754477  140.128342611   129.5301   5  20   3.5415   3.2219   7.9765  -1.0938   0.1152   1.8038   0.00    0.0
2328 385567.000   36.068754610  140.128342656   129.4495   5  20   3.5414   3.2219   7.9767  -1.0939   0.1373   1.8038   0.00    0.0
2328 385568.000   36.068754456  140.128343072   129.5067   5  20   3.5413   3.2219   7.9769  -1.0940   0.1563   1.8038   0.00    0.0
2328 385569.000   36.068755291  140.128342762   129.6297   5  20   3.5412   3.2219   7.9771  -1.0941   0.1732   1.8038   0.00    0.0
2328 385570.000   36.068754846  140.128342613   129.4926   5  20   3.5411   3.2219   7.9773  -1.0941   0.1886   1.8038   0.00    0.0
2328 385571.000   36.068755370  140.128342329   129.5608   5  20   3.5410   3.2219   7.9775  -1.0942   0.2029   1.8038   0.00    0.0
2328 385572.000   36.068755446  140.128341891   129.5992   5  20   3.5409   3.2219   7.9777  -1.0943   0.2162   1.8037   0.00    0.0
2328 385573.000   36.068755080  140.128341450   129.6678   5  20   3.5408   3.2220   7.9779  -1.0944   0.2287   1.8037   0.00    0.0
2328 385574.000   36.068755243  140.128340807   129.6888   5  20   3.5407   3.2220   7.9781  -1.0944   0.2406   1.8037   0.00    0.0
2328 385575.000   36.068755559  140.128340765   129.6844   5  20   3.5406   3.2220   7.9783  -1.0945   0.2520   1.8037   0.00    0.0
2328 385576.000   36.068756488  140.128341089   129.8259   5  20   3.5405   3.2220   7.9785  -1.0946   0.2628   1.8037   0.00    0.0
2328 385577.000   36.068756491  140.128341212   129.8393   5  20   3.5404   3.2220   7.9787  -1.0947   0.2732   1.8037   0.00    0.0
2328 385578.000   36.068756216  140.128341957   129.9329   5  20   3.5403   3.2220   7.9789  -1.0947   0.2832   1.8037   0.00    0.0
2328 385579.000   36.068756216  140.128342532   129.7403   5  20   3.5402   3.2220   7.9791  -1.0948   0.2929   1.8036   0.00    0.0
2328 385580.000   36.068755936  140.128342700   129.5321   5  20   3.5401   3.2221   7.9793  -1.0949   0.3023   1.8036   0.00    0.0
2328 385581.000   36.068755986  140.128342200   129.4376   5  20   3.5401   3.2221   7.9795  -1.0950   0.3114   1.8036   0.00    0.0
2328 385582.000   36.068755779  140.128342252   129.5662   5  20   3.5400   3.2221   7.9797  -1.0950   0.3203   1.8036   0.00    0.0
2328 385583.000   36.068756139  140.128342303   129.6464   5  20   3.5399   3.2221   7.9799  -1.0951   0.3289   1.8036   0.00    0.0
2328 385584.000   36.068756345  140.128341697   129.7254   5  20   3.5398   3.2221   7.9801  -1.0952   0.3373   1.8035   0.00    0.0
2328 385585.000   36.068756215  140.128341512   129.6597   5  20   3.5397   3.2221   7.9803  -1.0953   0.3454   1.8035   0.00    0.0
2328 385586.000   36.068755548  140.128341112   129.5361   5  20   3.5396   3.2222   7.9805  -1.0954   0.3534   1.8035   0.00    0.0
2328 385587.000   36.068755693  140.128340977   129.6636   5  20   3.5395   3.2222   7.9807  -1.0954   0.3613   1.8035   0.00    0.0
2328 385588.000   36.068755978  140.128340847   129.6773   5  20   3.5394   3.2222   7.9808  -1.0955   0.3689   1.8035   0.00    0.0
2328 385589.000   36.068756674  140.128341089   129.8041   5  20   3.5393   3.2222   7.9810  -1.0956   0.3764   1.8034   0.00    0.0
2328 385590.000   36.068756544  140.128341639   129.7644   5  20   3.5392   3.2222   7.9812  -1.0957   0.3838   1.8034   0.00    0.0
2328 385591.000   36.068756436  140.128341237   129.6521   5  20   3.5391   3.2222   7.9814  -1.0957   0.3910   1.8034   0.00    0.0
2328 385592.000   36.068756044  140.128341307   129.6686   5  20   3.5390   3.2223   7.9816  -1.0958   0.3981   1.8034   0.00    0.0
2328 385593.000   36.068755886  140.128341515   129.6297   5  20   3.5389   3.2223   7.9818  -1.0959   0.4051   1.8033   0.00    0.0
2328 385594.000   36.068756703  140.128341133   129.6189   5  20   3.5388   3.2223   7.9820  -1.0960   0.4119   1.8033   0.00    0.0
2328 385595.000   36.068757719  140.128341267   129.7074   5  20   3.5387   3.2223   7.9822  -1.0960   0.4186   1.8033   0.00    0.0
2328 385596.000   36.068757352  140.128341834   129.6431   5  20   3.5386   3.2223   7.9824  -1.0961   0.4253   1.8032   0.00    0.0
2328 385597.000   36.068757212  140.128341597   129.7436   5  20   3.5385   3.2223   7.9826  -1.0962   0.4318   1.8032   0.00    0.0
2328 385598.000   36.068756960  140.128341917   129.7395   5  20   3.5384   3.2224   7.9828  -1.0963   0.4382   1.8032   0.00    0.0
2328 385599.000   36.068756582  140.128342044   129.7896   5  20   3.5383   3.2224   7.9830  -1.0963   0.4446   1.8031   0.00    0.0
2328 385600.000   36.068756557  140.128342184   129.9105   5  20   3.5382   3.2224   7.9832  -1.0964   0.4508   1.8031   0.00    0.0
2328 385601.000   36.068756778  140.128342034   129.8636   5  20   3.5381   3.2224   7.9834  -1.0965   0.4570   1.8031   0.00    0.0
2328 385602.000   36.068757166  140.128342349   129.7820   5  20   3.5380   3.2224   7.9836  -1.0966   0.4631   1.8030   0.00    0.0
2328 385603.000   36.068756627  140.128342602   129.6044   5  20   3.5379   3.2224   7.9838  -1.0966   0.4691   1.8030   0.00    0.0
2328 385604.000   36.068756546  140.128342410   129.7141   5  20   3.5378   3.2225   7.9840  -1.0967   0.4751   1.8030   0.00    0.0
2328 385605.000   36.068756527  140.128342177   129.7808   5  20   3.5377   3.2225   7.9842  -1.0968   0.4809   1.8029   0.00    0.0
2328 385606.000   36.068756464  140.128341407   129.7736   5  20   3.5376   3.2225   7.9843  -1.0969   0.4867   1.8029   0.00    0.0
2328 385607.000   36.068756649  140.128341336   129.8495   5  20   3.5376   3.2225   7.9845  -1.0969   0.4924   1.8029   0.00    0.0
2328 385608.000   36.068757361  140.128340793   129.9528   5  20   3.5375   3.2225   7.9847  -1.0970   0.4981   1.8028   0.00    0.0
2328 385609.000   36.068757552  140.128340518   130.0167   5  20   3.5374   3.2226   7.9849  -1.0971   0.5037   1.8028   0.00    0.0
2328 385610.000   36.068758225  140.128340300   129.9639   5  20   3.5373   3.2226   7.9851  -1.0972   0.5092   1.8027   0.00    0.0
2328 385611.000   36.068758113  140.128340016   130.0030   5  20   3.5372   3.2226   7.9853  -1.0972   0.5147   1.8027   0.00    0.0
2328 385612.000   36.068757989  140.128340534   130.0495   5  20   3.5371   3.2226   7.9855  -1.0973   0.5201   1.8027   0.00    0.0
2328 385613.000   36.068757531  140.128341094   130.1020   5  20   3.5370   3.2226   7.9857  -1.0974   0.5255   1.8026   0.00    0.0
2328 385614.000   36.068757930  140.128341293   130.1316   5  20   3.5369   3.2227   7.9859  -1.0975   0.5308   1.8026   0.00    0.0
2328 385615.000   36.068758094  140.128341828   130.0886   5  20   3.5368   3.2227   7.9861  -1.0975   0.5361   1.8025   0.00    0.0
2328 385616.000   36.068757622  140.128341637   129.8597   5  20   3.5367   3.2227   7.9863  -1.0976   0.5413   1.8025   0.00    0.0
2328 385617.000   36.068757499  140.128342358   129.7525   5  20   3.5366   3.2227   7.9865  -1.0977   0.5464   1.8024   0.00    0.0
2328 385618.000   36.068758258  140.128342180   129.7402   5  20   3.5365   3.2228   7.9866  -1.0978   0.5516   1.8024   0.00    0.0
2328 385619.000   36.068757924  140.128341795   129.7109   5  20   3.5364   3.2228   7.9868  -1.0978   0.5566   1.8023   0.00    0.0
2328 385620.000   36.068757549  140.128341375   129.6214   5  20   3.5363   3.2228   7.9870  -1.0979   0.5617   1.8023   0.00    0.0
2328 385621.000   36.068757185  140.128340749   129.8439   5  20   3.5362   3.2228   7.9872  -1.0980   0.5666   1.8022   0.00    0.0
2328 385622.000   36.068757686  140.128340744   129.8812   5  20   3.5361   3.2228   7.9874  -1.0981   0.5716   1.8022   0.00    0.0
2328 385623.000   36.068757499  140.128340892   129.8590   5  20   3.5360   3.2229   7.9876  -1.0981   0.5765   1.8021   0.00    0.0
2328 385624.000   36.068757374  140.128341151   129.8274   5  20   3.5359   3.2229   7.9878  -1.0982   0.5813   1.8021   0.00    0.0
2328 385625.000   36.068757494  140.128341327   129.9645   5  20   3.5358   3.2229   7.9880  -1.0983   0.5861   1.8020   0.00    0.0
2328 385626.000   36.068757363  140.128340676   130.0103   5  20   3.5357   3.2229   7.9882  -1.0984   0.5909   1.8020   0.00    0.0
2328 385627.000   36.068757463  140.128340215   130.1347   5  20   3.5356   3.2230   7.9884  -1.0985   0.5956   1.8019   0.00    0.0
2328 385628.000   36.068757405  140.128340145   130.0289   5  20   3.5355   3.2230   7.9885  -1.0985   0.6003   1.8019   0.00    0.0
2328 385629.000   36.068757731  140.128340022   129.8903   5  20   3.5354   3.2230   7.9887  -1.0986   0.6050   1.8018   0.00    0.0
2328 385630.000   36.068757655  140.128339764   129.7918   5  20   3.5353   3.2230   7.9889  -1.0987   0.6096   1.8018   0.00    0.0
2328 385631.000   36.068758187  140.128339334   129.7441   5  20   3.5352   3.2231   7.9891  -1.0988   0.6142   1.8017   0.00    0.0
2328 385632.000   36.068758193  140.128339360   129.7455   5  20   3.5351   3.2231   7.9893  -1.0988   0.6188   1.8017   0.00    0.0
2328 385633.000   36.068758406  140.128339782   129.7943   5  20   3.5350   3.2231   7.9895  -1.0989   0.6233   1.8016   0.00    0.0
2328 385634.000   36.068758153  140.128340241   129.8569   5  20   3.5349   3.2231   7.9897  -1.0990   0.6278   1.8015   0.00    0.0
2328 385635.000   36.068758043  140.128340128   129.8170   5  20   3.5348   3.2231   7.9899  -1.0991   0.6323   1.8015   0.00    0.0
2328 385636.000   36.068758207  140.128340165   129.8778   5  20   3.5347   3.2232   7.9900  -1.0991   0.6367   1.8014   0.00    0.0
2328 385637.000   36.068757824  140.128340559   129.8799   5  20   3.5346   3.2232   7.9902  -1.0992   0.6411   1.8014   0.00    0.0
2328 385638.000   36.068758363  140.128340180   129.8882   5  20   3.5345   3.2232   7.9904  -1.0993   0.6455   1.8013   0.00    0.0
2328 385639.000   36.068758414  140.128340502   129.9456   5  20   3.5344   3.2232   7.9906  -1.0994   0.6499   1.8012   0.00    0.0
2328 385640.000   36.068758257  140.128340914   129.7561   5  20   3.5343   3.2233   7.9908  -1.0994   0.6542   1.8012   0.00    0.0
2328 385641.000   36.068758327  140.128340464   129.7301   5  20   3.5342   3.2233   7.9910  -1.0995   0.6585   1.8011   0.00    0.0
2328 385642.000   36.068758710  140.128340170   129.7157   5  20   3.5341   3.2233   7.9912  -1.0996   0.6627   1.8010   0.00    0.0
2328 385643.000   36.068758549  140.128340877   129.8585   5  20   3.5340   3.2233   7.9913  -1.0997   0.6670   1.8010   0.00    0.0
2328 385644.000   36.068758523  140.128341057   129.8567   5  20   3.5339   3.2234   7.9915  -1.0997   0.6712   1.8009   0.00    0.0
2328 385645.000   36.068758254  140.128340850   129.7258   5  20   3.5338   3.2234   7.9917  -1.0998   0.6754   1.8008   0.00    0.0
2328 385646.000   36.068758307  140.128340570   129.6935   5  20   3.5337   3.2234   7.9919  -1.0999   0.6795   1.8008   0.00    0.0
