% program   : rnx2rtkp(MALIB ver.1.1.0)
% inp file  : data/MALIB_OSS_data_obsnav_240822-1100.obs
% inp file  : data/MALIB_OSS_data_obsnav_240822-1100.nav
% inp file  : data/2024235L.209.l6
% obs start : 2024/08/22 11:00:00.0 GPST (week2328 385200.0s)
% obs end   : 2024/08/22 11:59:59.0 GPST (week2328 388799.0s)
% pos mode  : PPP Kinematic
% freqs     : L1+2
% solution  : Forward
% elev mask : 10.0 deg
% dynamics  : off
% tidecorr  : on
% ionos opt : Estimate TEC
% tropo opt : Estimate ZTD
% ephemeris : Broadcast+SSR APC
% navi sys  : GPS GLONASS Galileo QZSS
% ar sys    : GPS
% amb res   : Continuous
% val thres : 3.0
% antenna1  :                       ( 0.0000  0.0000  0.0000)
%
% (lat/lon/height=WGS84/ellipsoidal,Q=1:fix,2:float,3:sbas,4:dgps,5:single,6:ppp,ns=# of satellites)
%  GPST                  latitude(deg) longitude(deg)  height(m)   Q  ns   sdn(m)   sde(m)   sdu(m)  sdne(m)  sdeu(m)  sdun(m) age(s)  ratio
2024/08/22 11:00:05.000   36.068735658  140.128353589   113.2880   6  14   2.9690   2.6978   5.7900  -0.6819  -1.2011   0.5729   0.00    2.9
2024/08/22 11:00:06.000   36.068735880  140.128353172   113.3497   6  14   2.1342   1.9372   4.1704  -0.4684  -0.8584   0.4057   0.00    2.4
2024/08/22 11:00:07.000   36.068735993  140.128352831   113.3754   6  14   1.7526   1.5903   3.4300  -0.3784  -0.7030   0.3314   0.00    2.1
2024/08/22 11:00:08.000   36.068736109  140.128352712   113.4086   6  14   1.5224   1.3812   2.9836  -0.3260  -0.6095   0.2870   0.00    2.0
2024/08/22 11:00:09.000   36.068736321  140.128352490   113.4154   6  14   1.3644   1.2376   2.6772  -0.2907  -0.5454   0.2567   0.00    1.9
2024/08/22 11:00:10.000   36.068736645  140.128352334   113.4389   6  14   1.2451   1.1297   2.4463  -0.2637  -0.4966   0.2319   0.00    1.8
2024/08/22 11:00:11.000   36.068736842  140.128352227   113.4517   6  14   1.1531   1.0462   2.2683  -0.2434  -0.4591   0.2135   0.00    1.7
2024/08/22 11:00:12.000   36.068736978  140.128352333   113.4636   6  14   1.0788   0.9789   2.1248  -0.2272  -0.4289   0.1986   0.00    1.7
2024/08/22 11:00:13.000   36.068737235  140.128352463   113.4925   6  14   1.0172   0.9232   2.0059  -0.2139  -0.4038   0.1861   0.00    1.6
2024/08/22 11:00:14.000   36.068737425  140.128352530   113.5000   6  14   0.9651   0.8759   1.9053  -0.2027  -0.3826   0.1755   0.00    1.6
2024/08/22 11:00:15.000   36.068737379  140.128352544   113.5063   6  14   0.9202   0.8353   1.8188  -0.1930  -0.3644   0.1663   0.00    1.1
2024/08/22 11:00:16.000   36.068737478  140.128352510   113.5212   6  14   0.8811   0.7998   1.7433  -0.1846  -0.3484   0.1581   0.00    3.1
2024/08/22 11:00:17.000   36.068737606  140.128352557   113.5191   6  14   0.8465   0.7685   1.6768  -0.1772  -0.3343   0.1509   0.00    1.0
2024/08/22 11:00:18.000   36.068737674  140.128352610   113.5251   6  14   0.8157   0.7406   1.6176  -0.1706  -0.3217   0.1443   0.00    1.0
2024/08/22 11:00:19.000   36.068737726  140.128352568   113.5402   6  14   0.7880   0.7156   1.5644  -0.1647  -0.3103   0.1383   0.00    1.0
2024/08/22 11:00:20.000   36.068737781  140.128352432   113.5542   6  14   0.7629   0.6929   1.5163  -0.1593  -0.3000   0.1327   0.00    2.3
2024/08/22 11:00:21.000   36.068737891  140.128352219   113.5770   6  14   0.7401   0.6722   1.4725  -0.1544  -0.2906   0.1276   0.00    1.4
2024/08/22 11:00:22.000   36.068738093  140.128352135   113.6121   6  14   0.7192   0.6533   1.4324  -0.1499  -0.2820   0.1228   0.00    1.6
2024/08/22 11:00:23.000   36.068738240  140.128352106   113.6426   6  14   0.6999   0.6359   1.3956  -0.1458  -0.2741   0.1183   0.00    1.5
2024/08/22 11:00:24.000   36.068738394  140.128352133   113.6682   6  14   0.6821   0.6198   1.3615  -0.1420  -0.2667   0.1140   0.00    1.5
2024/08/22 11:00:26.000   36.068727121  140.128349907   112.1966   6   7   0.6781   0.6134   1.3480  -0.1333  -0.2711   0.1613   0.00    1.1
2024/08/22 11:00:27.000   36.068728592  140.128350629   112.4985   6   7   0.6725   0.6064   1.3324  -0.1244  -0.2744   0.1857   0.00    1.0
2024/08/22 11:00:28.000   36.068729752  140.128350919   112.7162   6   7   0.6670   0.5999   1.3175  -0.1158  -0.2771   0.2050   0.00    1.2
2024/08/22 11:00:29.000   36.068730934  140.128351159   112.9285   6   8   0.6584   0.5921   1.2996  -0.1170  -0.2836   0.2067   0.00    1.1
2024/08/22 11:00:30.000   36.068732398  140.128351361   113.1392   6  14   0.6429   0.5787   1.2717  -0.1162  -0.2759   0.1971   0.00    3.0
2024/08/22 11:00:31.000   36.068733412  140.128351480   113.2838   6  14   0.6288   0.5664   1.2461  -0.1142  -0.2685   0.1891   0.00    2.2
2024/08/22 11:00:32.000   36.068734280  140.128351564   113.3943   6  14   0.6157   0.5548   1.2222  -0.1123  -0.2617   0.1820   0.00    1.5
2024/08/22 11:00:33.000   36.068735031  140.128351592   113.4815   6  14   0.6034   0.5440   1.1998  -0.1106  -0.2555   0.1756   0.00    1.1
2024/08/22 11:00:34.000   36.068735712  140.128351540   113.5505   6  14   0.5918   0.5338   1.1786  -0.1090  -0.2496   0.1696   0.00    1.3
2024/08/22 11:00:35.000   36.068736287  140.128351535   113.6095   6  14   0.5808   0.5242   1.1586  -0.1076  -0.2442   0.1641   0.00    1.8
2024/08/22 11:00:36.000   36.068736792  140.128351479   113.6567   6  14   0.5704   0.5151   1.1397  -0.1061  -0.2390   0.1589   0.00    1.9
2024/08/22 11:00:37.000   36.068737236  140.128351404   113.6968   6  14   0.5606   0.5064   1.1217  -0.1048  -0.2342   0.1541   0.00    1.6
2024/08/22 11:00:38.000   36.068737610  140.128351356   113.7408   6  14   0.5512   0.4982   1.1046  -0.1034  -0.2296   0.1495   0.00    1.2
2024/08/22 11:00:39.000   36.068737924  140.128351329   113.7799   6  14   0.5423   0.4903   1.0883  -0.1021  -0.2252   0.1452   0.00    1.0
2024/08/22 11:00:40.000   36.068738239  140.128351367   113.8181   6  14   0.5338   0.4828   1.0728  -0.1009  -0.2211   0.1411   0.00    1.3
2024/08/22 11:00:41.000   36.068738530  140.128351362   113.8523   6  14   0.5257   0.4757   1.0580  -0.0997  -0.2171   0.1371   0.00    1.7
2024/08/22 11:00:42.000   36.068738794  140.128351352   113.8864   6  14   0.5179   0.4688   1.0438  -0.0985  -0.2133   0.1334   0.00    2.2
2024/08/22 11:00:43.000   36.068739089  140.128351408   113.9229   6  14   0.5104   0.4623   1.0302  -0.0974  -0.2097   0.1298   0.00    2.7
2024/08/22 11:00:44.000   36.068739333  140.128351427   113.9563   6  14   0.5033   0.4560   1.0171  -0.0963  -0.2062   0.1264   0.00    3.2
2024/08/22 11:00:45.000   36.068739535  140.128351420   113.9856   6  14   0.4964   0.4500   1.0046  -0.0952  -0.2029   0.1231   0.00    3.7
2024/08/22 11:00:46.000   36.068739752  140.128351417   114.0112   6  14   0.4898   0.4442   0.9925  -0.0942  -0.1997   0.1198   0.00    4.1
2024/08/22 11:00:47.000   36.068739974  140.128351399   114.0284   6  14   0.4834   0.4386   0.9810  -0.0932  -0.1966   0.1168   0.00    4.0
2024/08/22 11:00:48.000   36.068740181  140.128351398   114.0443   6  14   0.4772   0.4332   0.9698  -0.0922  -0.1937   0.1138   0.00    3.8
2024/08/22 11:00:49.000   36.068740384  140.128351400   114.0589   6  14   0.4713   0.4280   0.9590  -0.0912  -0.1908   0.1109   0.00    3.6
2024/08/22 11:00:50.000   36.068740566  140.128351402   114.0801   6  14   0.4656   0.4230   0.9487  -0.0903  -0.1881   0.1081   0.00    3.4
2024/08/22 11:00:51.000   36.068740712  140.128351410   114.0952   6  14   0.4601   0.4182   0.9386  -0.0893  -0.1854   0.1053   0.00    3.2
2024/08/22 11:00:52.000   36.068740847  140.128351430   114.1078   6  14   0.4547   0.4135   0.9289  -0.0885  -0.1829   0.1026   0.00    2.9
2024/08/22 11:00:53.000   36.068740957  140.128351445   114.1211   6  14   0.4495   0.4090   0.9196  -0.0876  -0.1804   0.1001   0.00    2.6
2024/08/22 11:00:54.000   36.068741073  140.128351451   114.1356   6  14   0.4445   0.4046   0.9105  -0.0868  -0.1780   0.0975   0.00    2.3
2024/08/22 11:00:55.000   36.068741227  140.128351356   114.1499   6  14   0.4396   0.4004   0.9017  -0.0859  -0.1756   0.0950   0.00    2.1
2024/08/22 11:00:56.000   36.068741330  140.128351368   114.1588   6  14   0.4349   0.3963   0.8932  -0.0851  -0.1734   0.0926   0.00    1.8
2024/08/22 11:00:57.000   36.068741416  140.128351365   114.1646   6  14   0.4303   0.3923   0.8849  -0.0843  -0.1712   0.0902   0.00    1.6
2024/08/22 11:00:58.000   36.068741528  140.128351335   114.1747   6  14   0.4259   0.3884   0.8769  -0.0835  -0.1690   0.0878   0.00    1.5
2024/08/22 11:00:59.000   36.068741644  140.128351296   114.1822   6  14   0.4215   0.3847   0.8691  -0.0827  -0.1669   0.0855   0.00    1.3
2024/08/22 11:01:00.000   36.068741775  140.128351204   114.1941   6  14   0.4173   0.3810   0.8615  -0.0820  -0.1649   0.0832   0.00    1.2
2024/08/22 11:01:01.000   36.068741908  140.128351135   114.1943   6  14   0.4132   0.3775   0.8542  -0.0813  -0.1630   0.0810   0.00    1.1
2024/08/22 11:01:02.000   36.068741997  140.128351100   114.1974   6  14   0.4092   0.3740   0.8470  -0.0805  -0.1611   0.0787   0.00    1.0
2024/08/22 11:01:03.000   36.068742064  140.128351084   114.2013   6  14   0.4053   0.3707   0.8401  -0.0798  -0.1592   0.0765   0.00    1.0
2024/08/22 11:01:04.000   36.068742150  140.128351046   114.1990   6  14   0.4015   0.3674   0.8333  -0.0792  -0.1574   0.0744   0.00    1.1
2024/08/22 11:01:05.000   36.068742234  140.128351043   114.1941   6  14   0.3978   0.3642   0.8267  -0.0785  -0.1556   0.0722   0.00    1.2
2024/08/22 11:01:06.000   36.068742325  140.128351035   114.1854   6  14   0.3942   0.3611   0.8203  -0.0778  -0.1539   0.0700   0.00    1.2
2024/08/22 11:01:07.000   36.068742387  140.128350987   114.1748   6  14   0.3906   0.3581   0.8140  -0.0771  -0.1522   0.0679   0.00    1.3
2024/08/22 11:01:08.000   36.068742461  140.128350981   114.1648   6  14   0.3872   0.3552   0.8079  -0.0765  -0.1505   0.0658   0.00    1.3
2024/08/22 11:01:09.000   36.068742503  140.128350984   114.1554   6  14   0.3838   0.3523   0.8019  -0.0759  -0.1489   0.0636   0.00    1.4
2024/08/22 11:01:10.000   36.068742544  140.128350977   114.1543   6  14   0.3805   0.3495   0.7961  -0.0753  -0.1474   0.0615   0.00    1.4
2024/08/22 11:01:11.000   36.068742563  140.128350984   114.1523   6  14   0.3773   0.3467   0.7904  -0.0746  -0.1458   0.0594   0.00    1.3
2024/08/22 11:01:12.000   36.068742576  140.128351004   114.1456   6  14   0.3741   0.3440   0.7848  -0.0740  -0.1443   0.0573   0.00    1.3
2024/08/22 11:01:13.000   36.068742607  140.128351017   114.1369   6  14   0.3710   0.3414   0.7794  -0.0734  -0.1429   0.0552   0.00    1.2
2024/08/22 11:01:14.000   36.068742647  140.128350996   114.1311   6  14   0.3680   0.3388   0.7740  -0.0728  -0.1414   0.0530   0.00    1.1
2024/08/22 11:01:15.000   36.068742671  140.128351021   114.1235   6  14   0.3650   0.3363   0.7689  -0.0723  -0.1400   0.0509   0.00    1.1
2024/08/22 11:01:16.000   36.068742704  140.128351016   114.1196   6  14   0.3621   0.3339   0.7638  -0.0717  -0.1386   0.0486   0.00    1.0
2024/08/22 11:01:17.000   36.068742737  140.128351038   114.1156   6  14   0.3593   0.3315   0.7588  -0.0711  -0.1373   0.0465   0.00    1.0
2024/08/22 11:01:18.000   36.068742757  140.128351046   114.1096   6  14   0.3565   0.3291   0.7539  -0.0706  -0.1360   0.0442   0.00    1.1
2024/08/22 11:01:19.000   36.068742758  140.128351031   114.1031   6  14   0.3537   0.3268   0.7492  -0.0701  -0.1347   0.0420   0.00    1.1
2024/08/22 11:01:20.000   36.068742800  140.128351020   114.0978   6  14   0.3510   0.3246   0.7445  -0.0696  -0.1334   0.0397   0.00    1.2
2024/08/22 11:01:21.000   36.068742831  140.128351021   114.0958   6  14   0.3484   0.3224   0.7399  -0.0690  -0.1322   0.0374   0.00    1.3
2024/08/22 11:01:22.000   36.068742857  140.128351016   114.0936   6  14   0.3458   0.3202   0.7354  -0.0685  -0.1309   0.0348   0.00    1.3
2024/08/22 11:01:23.000   36.068742878  140.128351000   114.0884   6  14   0.3433   0.3181   0.7310  -0.0680  -0.1297   0.0323   0.00    1.4
2024/08/22 11:01:24.000   36.068742912  140.128350983   114.0861   6  14   0.3408   0.3160   0.7267  -0.0675  -0.1286   0.0296   0.00    1.5
2024/08/22 11:01:25.000   36.068742974  140.128351000   114.0822   6  14   0.3383   0.3140   0.7225  -0.0671  -0.1274   0.0268   0.00    1.6
2024/08/22 11:01:26.000   36.068743015  140.128351013   114.0774   6  14   0.3359   0.3120   0.7183  -0.0665  -0.1263   0.0236   0.00    1.7
2024/08/22 11:01:27.000   36.068743029  140.128351016   114.0699   6  14   0.3335   0.3100   0.7142  -0.0660  -0.1252   0.0202   0.00    1.8
2024/08/22 11:01:28.000   36.068743061  140.128351026   114.0613   6  14   0.3312   0.3081   0.7102  -0.0656  -0.1241   0.0162   0.00    1.9
2024/08/22 11:01:29.000   36.068743107  140.128351035   114.0550   6  14   0.3289   0.3062   0.7063  -0.0651  -0.1230   0.0111   0.00    2.0
2024/08/22 11:01:30.000   36.068743135  140.128351053   114.0481   6  14   0.3266   0.3043   0.7024  -0.0646  -0.1220  -0.0043   0.00    2.1
2024/08/22 11:01:31.000   36.068743182  140.128351077   114.0412   6  14   0.3244   0.3025   0.6986  -0.0642  -0.1209  -0.0124   0.00    2.2
2024/08/22 11:01:32.000   36.068743191  140.128351121   114.0332   6  14   0.3223   0.3007   0.6949  -0.0637  -0.1199  -0.0168   0.00    2.3
2024/08/22 11:01:33.000   36.068743188  140.128351119   114.0240   6  14   0.3201   0.2989   0.6912  -0.0634  -0.1189  -0.0201   0.00    2.5
2024/08/22 11:01:34.000   36.068743186  140.128351116   114.0152   6  14   0.3180   0.2972   0.6876  -0.0629  -0.1180  -0.0228   0.00    2.6
2024/08/22 11:01:35.000   36.068743186  140.128351087   114.0009   6  15   0.3159   0.2955   0.6840  -0.0625  -0.1170  -0.0252   0.00    2.7
2024/08/22 11:01:36.000   36.068743190  140.128351067   113.9844   6  15   0.3138   0.2938   0.6805  -0.0621  -0.1160  -0.0273   0.00    2.9
2024/08/22 11:01:37.000   36.068743186  140.128351039   113.9684   6  15   0.3118   0.2922   0.6770  -0.0617  -0.1151  -0.0292   0.00    3.1
2024/08/22 11:01:38.000   36.068743191  140.128351001   113.9500   6  15   0.3098   0.2905   0.6736  -0.0612  -0.1142  -0.0309   0.00    3.2
2024/08/22 11:01:39.000   36.068743196  140.128351024   113.9353   6  15   0.3078   0.2889   0.6702  -0.0608  -0.1133  -0.0324   0.00    3.4
2024/08/22 11:01:40.000   36.068743192  140.128351034   113.9180   6  15   0.3059   0.2874   0.6669  -0.0605  -0.1124  -0.0339   0.00    3.6
2024/08/22 11:01:41.000   36.068743189  140.128351070   113.9065   6  15   0.3040   0.2858   0.6636  -0.0601  -0.1116  -0.0352   0.00    3.8
2024/08/22 11:01:42.000   36.068743202  140.128351081   113.8975   6  15   0.3021   0.2843   0.6604  -0.0597  -0.1107  -0.0364   0.00    4.0
2024/08/22 11:01:43.000   36.068743211  140.128351088   113.8854   6  15   0.3002   0.2828   0.6572  -0.0593  -0.1099  -0.0377   0.00    4.2
2024/08/22 11:01:44.000   36.068743226  140.128351057   113.8721   6  15   0.2984   0.2813   0.6541  -0.0590  -0.1090  -0.0387   0.00    4.4
2024/08/22 11:01:45.000   36.068743229  140.128351022   113.8623   6  15   0.2966   0.2799   0.6510  -0.0585  -0.1082  -0.0398   0.00    4.6
2024/08/22 11:01:46.000   36.068743229  140.128350972   113.8497   6  15   0.2948   0.2785   0.6480  -0.0582  -0.1074  -0.0408   0.00    4.8
2024/08/22 11:01:47.000   36.068743227  140.128350924   113.8359   6  15   0.2931   0.2770   0.6450  -0.0579  -0.1066  -0.0417   0.00    5.0
2024/08/22 11:01:48.000   36.068743204  140.128350869   113.8210   6  15   0.2913   0.2757   0.6420  -0.0575  -0.1059  -0.0425   0.00    5.1
2024/08/22 11:01:49.000   36.068743214  140.128350836   113.8029   6  15   0.2896   0.2743   0.6391  -0.0571  -0.1051  -0.0434   0.00    5.3
2024/08/22 11:01:50.000   36.068743200  140.128350808   113.7844   6  15   0.2879   0.2730   0.6362  -0.0568  -0.1044  -0.0442   0.00    5.5
2024/08/22 11:01:51.000   36.068743198  140.128350791   113.7657   6  15   0.2863   0.2716   0.6334  -0.0565  -0.1036  -0.0449   0.00    5.6
2024/08/22 11:01:52.000   36.068743180  140.128350796   113.7477   6  15   0.2846   0.2703   0.6306  -0.0562  -0.1029  -0.0456   0.00    5.7
2024/08/22 11:01:53.000   36.068743169  140.128350786   113.7349   6  15   0.2830   0.2690   0.6278  -0.0559  -0.1022  -0.0463   0.00    5.9
2024/08/22 11:01:54.000   36.068743157  140.128350775   113.7196   6  15   0.2814   0.2678   0.6250  -0.0555  -0.1015  -0.0469   0.00    6.1
2024/08/22 11:01:55.000   36.068743117  140.128350797   113.7066   6  15   0.2798   0.2665   0.6223  -0.0552  -0.1008  -0.0475   0.00    6.2
2024/08/22 11:01:56.000   36.068743112  140.128350775   113.6989   6  15   0.2782   0.2653   0.6197  -0.0549  -0.1001  -0.0481   0.00    6.3
2024/08/22 11:01:57.000   36.068743121  140.128350764   113.6938   6  15   0.2767   0.2640   0.6170  -0.0546  -0.0995  -0.0487   0.00    6.5
2024/08/22 11:01:58.000   36.068743119  140.128350750   113.6885   6  15   0.2751   0.2628   0.6144  -0.0543  -0.0988  -0.0492   0.00    6.6
2024/08/22 11:01:59.000   36.068743117  140.128350735   113.6790   6  15   0.2736   0.2617   0.6118  -0.0539  -0.0982  -0.0498   0.00    6.7
2024/08/22 11:02:00.000   36.068743108  140.128350743   113.6686   6  15   0.2721   0.2605   0.6093  -0.0537  -0.0975  -0.0502   0.00    6.9
2024/08/22 11:02:01.000   36.068743094  140.128350725   113.6623   6  15   0.2706   0.2593   0.6068  -0.0534  -0.0969  -0.0507   0.00    7.0
2024/08/22 11:02:02.000   36.068743092  140.128350698   113.6529   6  15   0.2692   0.2582   0.6043  -0.0531  -0.0963  -0.0511   0.00    7.2
2024/08/22 11:02:03.000   36.068743088  140.128350668   113.6433   6  15   0.2678   0.2571   0.6018  -0.0528  -0.0957  -0.0516   0.00    7.4
2024/08/22 11:02:04.000   36.068743095  140.128350642   113.6368   6  15   0.2663   0.2559   0.5994  -0.0526  -0.0950  -0.0520   0.00    7.5
2024/08/22 11:02:05.000   36.068743065  140.128350649   113.6310   6  20   0.2647   0.2547   0.5967  -0.0523  -0.0940  -0.0521   0.00    7.6
2024/08/22 11:02:06.000   36.068743075  140.128350598   113.6255   6  20   0.2631   0.2535   0.5940  -0.0521  -0.0928  -0.0524   0.00    7.7
2024/08/22 11:02:07.000   36.068743075  140.128350540   113.6181   6  20   0.2616   0.2523   0.5914  -0.0517  -0.0918  -0.0526   0.00    7.8
2024/08/22 11:02:08.000   36.068743082  140.128350489   113.6133   6  20   0.2601   0.2511   0.5888  -0.0514  -0.0909  -0.0528   0.00    7.9
2024/08/22 11:02:09.000   36.068743092  140.128350456   113.6082   6  20   0.2587   0.2500   0.5863  -0.0513  -0.0899  -0.0531   0.00    8.1
2024/08/22 11:02:10.000   36.068743089  140.128350440   113.6073   6  20   0.2572   0.2488   0.5838  -0.0509  -0.0890  -0.0533   0.00    8.2
2024/08/22 11:02:11.000   36.068743089  140.128350393   113.6043   6  20   0.2558   0.2477   0.5813  -0.0507  -0.0882  -0.0535   0.00    8.3
2024/08/22 11:02:12.000   36.068743095  140.128350344   113.5958   6  20   0.2544   0.2466   0.5789  -0.0505  -0.0873  -0.0537   0.00    8.4
2024/08/22 11:02:13.000   36.068743087  140.128350296   113.5886   6  20   0.2530   0.2456   0.5765  -0.0502  -0.0865  -0.0539   0.00    8.4
2024/08/22 11:02:14.000   36.068743081  140.128350233   113.5820   6  20   0.2516   0.2445   0.5741  -0.0499  -0.0857  -0.0541   0.00    8.5
2024/08/22 11:02:15.000   36.068743054  140.128350206   113.5764   6  20   0.2503   0.2434   0.5717  -0.0498  -0.0849  -0.0544   0.00    8.6
2024/08/22 11:02:16.000   36.068743040  140.128350149   113.5676   6  20   0.2489   0.2424   0.5694  -0.0495  -0.0841  -0.0546   0.00    8.7
2024/08/22 11:02:17.000   36.068743044  140.128350104   113.5625   6  20   0.2476   0.2414   0.5671  -0.0492  -0.0833  -0.0547   0.00    8.9
2024/08/22 11:02:18.000   36.068743035  140.128350054   113.5608   6  20   0.2463   0.2403   0.5648  -0.0491  -0.0826  -0.0549   0.00    9.0
2024/08/22 11:02:19.000   36.068743030  140.128349996   113.5549   6  20   0.2450   0.2394   0.5626  -0.0489  -0.0818  -0.0551   0.00    9.0
2024/08/22 11:02:20.000   36.068743027  140.128349936   113.5525   6  20   0.2437   0.2384   0.5603  -0.0485  -0.0811  -0.0552   0.00    9.1
2024/08/22 11:02:21.000   36.068743015  140.128349895   113.5509   6  20   0.2424   0.2374   0.5581  -0.0483  -0.0804  -0.0554   0.00    9.2
2024/08/22 11:02:22.000   36.068742997  140.128349846   113.5471   6  20   0.2412   0.2364   0.5559  -0.0481  -0.0797  -0.0556   0.00    9.2
2024/08/22 11:02:23.000   36.068742994  140.128349813   113.5403   6  20   0.2399   0.2355   0.5537  -0.0480  -0.0790  -0.0557   0.00    9.3
2024/08/22 11:02:24.000   36.068743000  140.128349790   113.5348   6  20   0.2388   0.2346   0.5516  -0.0477  -0.0783  -0.0560   0.00    9.4
2024/08/22 11:02:25.000   36.068743008  140.128349796   113.5336   6  20   0.2375   0.2336   0.5494  -0.0475  -0.0776  -0.0561   0.00    9.5
2024/08/22 11:02:26.000   36.068743022  140.128349749   113.5322   6  20   0.2363   0.2327   0.5473  -0.0473  -0.0770  -0.0562   0.00    9.6
2024/08/22 11:02:27.000   36.068743046  140.128349701   113.5273   6  20   0.2351   0.2318   0.5452  -0.0472  -0.0764  -0.0564   0.00    9.7
2024/08/22 11:02:28.000   36.068743047  140.128349646   113.5255   6  20   0.2339   0.2309   0.5431  -0.0470  -0.0758  -0.0565   0.00    9.7
2024/08/22 11:02:29.000   36.068743067  140.128349611   113.5190   6  20   0.2328   0.2300   0.5410  -0.0467  -0.0751  -0.0566   0.00    9.8
2024/08/22 11:02:30.000   36.068743067  140.128349583   113.5143   6  20   0.2316   0.2292   0.5390  -0.0466  -0.0745  -0.0568   0.00    9.8
2024/08/22 11:02:31.000   36.068743061  140.128349513   113.5144   6  20   0.2305   0.2283   0.5369  -0.0463  -0.0739  -0.0569   0.00    9.8
2024/08/22 11:02:32.000   36.068743053  140.128349453   113.5152   6  20   0.2293   0.2274   0.5349  -0.0463  -0.0734  -0.0571   0.00    9.8
2024/08/22 11:02:33.000   36.068743053  140.128349397   113.5163   6  20   0.2282   0.2266   0.5329  -0.0461  -0.0728  -0.0571   0.00    9.8
2024/08/22 11:02:34.000   36.068743050  140.128349341   113.5162   6  20   0.2271   0.2258   0.5309  -0.0459  -0.0721  -0.0573   0.00    9.9
2024/08/22 11:02:35.000   36.068742983  140.128349350   113.5205   6  20   0.2260   0.2249   0.5289  -0.0458  -0.0716  -0.0574   0.00    9.8
2024/08/22 11:02:36.000   36.068742986  140.128349322   113.5210   6  20   0.2249   0.2241   0.5269  -0.0456  -0.0710  -0.0575   0.00    9.9
2024/08/22 11:02:37.000   36.068742977  140.128349262   113.5206   6  20   0.2238   0.2233   0.5250  -0.0454  -0.0705  -0.0577   0.00    9.8
2024/08/22 11:02:38.000   36.068742980  140.128349221   113.5182   6  20   0.2228   0.2225   0.5230  -0.0453  -0.0699  -0.0578   0.00    9.8
2024/08/22 11:02:39.000   36.068742985  140.128349180   113.5173   6  20   0.2217   0.2217   0.5211  -0.0452  -0.0694  -0.0579   0.00    9.8
2024/08/22 11:02:40.000   36.068742995  140.128349124   113.5199   6  20   0.2207   0.2209   0.5192  -0.0450  -0.0689  -0.0580   0.00    9.8
2024/08/22 11:02:41.000   36.068743012  140.128349065   113.5235   6  20   0.2196   0.2202   0.5173  -0.0449  -0.0683  -0.0581   0.00    9.8
2024/08/22 11:02:42.000   36.068743020  140.128349008   113.5240   6  20   0.2186   0.2194   0.5154  -0.0447  -0.0678  -0.0582   0.00    9.8
2024/08/22 11:02:43.000   36.068743031  140.128348975   113.5271   6  20   0.2176   0.2186   0.5135  -0.0446  -0.0673  -0.0583   0.00    9.8
2024/08/22 11:02:44.000   36.068743031  140.128348944   113.5277   6  20   0.2166   0.2179   0.5116  -0.0444  -0.0668  -0.0584   0.00    9.8
2024/08/22 11:02:45.000   36.068743028  140.128348938   113.5340   6  20   0.2156   0.2171   0.5098  -0.0442  -0.0663  -0.0585   0.00    9.8
2024/08/22 11:02:46.000   36.068743029  140.128348892   113.5354   6  20   0.2146   0.2164   0.5079  -0.0441  -0.0658  -0.0587   0.00    9.8
2024/08/22 11:02:47.000   36.068743026  140.128348851   113.5395   6  20   0.2136   0.2157   0.5061  -0.0440  -0.0653  -0.0587   0.00    9.7
2024/08/22 11:02:48.000   36.068743025  140.128348789   113.5409   6  20   0.2126   0.2149   0.5042  -0.0439  -0.0648  -0.0589   0.00    9.6
2024/08/22 11:02:49.000   36.068743032  140.128348722   113.5402   6  20   0.2117   0.2142   0.5024  -0.0438  -0.0643  -0.0589   0.00    9.6
2024/08/22 11:02:50.000   36.068743027  140.128348676   113.5433   6  20   0.2107   0.2135   0.5006  -0.0435  -0.0639  -0.0590   0.00    9.5
2024/08/22 11:02:51.000   36.068743036  140.128348623   113.5420   6  20   0.2098   0.2129   0.4988  -0.0434  -0.0634  -0.0592   0.00    9.5
2024/08/22 11:02:52.000   36.068743045  140.128348555   113.5428   6  20   0.2088   0.2121   0.4970  -0.0433  -0.0629  -0.0593   0.00    9.4
2024/08/22 11:02:53.000   36.068743062  140.128348508   113.5453   6  20   0.2079   0.2115   0.4952  -0.0432  -0.0624  -0.0594   0.00    9.4
2024/08/22 11:02:54.000   36.068743075  140.128348455   113.5462   6  20   0.2069   0.2108   0.4935  -0.0431  -0.0620  -0.0594   0.00    9.3
2024/08/22 11:02:55.000   36.068743081  140.128348406   113.5443   6  20   0.2060   0.2101   0.4917  -0.0429  -0.0615  -0.0595   0.00    9.3
2024/08/22 11:02:56.000   36.068743072  140.128348361   113.5403   6  20   0.2051   0.2094   0.4900  -0.0428  -0.0611  -0.0596   0.00    9.3
2024/08/22 11:02:57.000   36.068743075  140.128348332   113.5360   6  20   0.2042   0.2087   0.4882  -0.0428  -0.0606  -0.0597   0.00    9.2
2024/08/22 11:02:58.000   36.068743082  140.128348281   113.5317   6  20   0.2033   0.2081   0.4865  -0.0426  -0.0602  -0.0598   0.00    9.2
2024/08/22 11:02:59.000   36.068743090  140.128348267   113.5260   6  20   0.2024   0.2074   0.4848  -0.0426  -0.0597  -0.0599   0.00    9.1
2024/08/22 11:03:00.000   36.068743107  140.128348225   113.5213   6  20   0.2015   0.2068   0.4831  -0.0424  -0.0593  -0.0600   0.00    9.0
2024/08/22 11:03:01.000   36.068743101  140.128348214   113.5190   6  20   0.2006   0.2062   0.4814  -0.0424  -0.0589  -0.0601   0.00    9.0
2024/08/22 11:03:02.000   36.068743098  140.128348197   113.5123   6  20   0.1998   0.2055   0.4797  -0.0422  -0.0585  -0.0602   0.00    8.9
2024/08/22 11:03:03.000   36.068743102  140.128348198   113.5087   6  20   0.1989   0.2049   0.4780  -0.0421  -0.0580  -0.0603   0.00    8.8
2024/08/22 11:03:04.000   36.068743099  140.128348179   113.5049   6  20   0.1980   0.2043   0.4763  -0.0420  -0.0576  -0.0603   0.00    8.7
2024/08/22 11:03:05.000   36.068743039  140.128348220   113.4982   6  20   0.1972   0.2037   0.4746  -0.0419  -0.0572  -0.0605   0.00    8.7
2024/08/22 11:03:06.000   36.068743044  140.128348199   113.4933   6  20   0.1964   0.2031   0.4730  -0.0418  -0.0567  -0.0606   0.00    8.6
2024/08/22 11:03:07.000   36.068743057  140.128348169   113.4911   6  20   0.1956   0.2025   0.4713  -0.0417  -0.0563  -0.0607   0.00    8.6
2024/08/22 11:03:08.000   36.068743060  140.128348156   113.4860   6  20   0.1948   0.2018   0.4697  -0.0416  -0.0559  -0.0608   0.00    8.5
2024/08/22 11:03:09.000   36.068743054  140.128348144   113.4790   6  20   0.1939   0.2013   0.4680  -0.0415  -0.0555  -0.0608   0.00    8.4
2024/08/22 11:03:10.000   36.068743068  140.128348132   113.4720   6  20   0.1931   0.2007   0.4664  -0.0414  -0.0551  -0.0609   0.00    8.4
2024/08/22 11:03:11.000   36.068743048  140.128348114   113.4672   6  20   0.1923   0.2001   0.4648  -0.0414  -0.0547  -0.0610   0.00    8.3
2024/08/22 11:03:12.000   36.068743047  140.128348102   113.4641   6  20   0.1915   0.1995   0.4632  -0.0412  -0.0542  -0.0610   0.00    8.3
2024/08/22 11:03:13.000   36.068743041  140.128348086   113.4568   6  20   0.1907   0.1989   0.4615  -0.0413  -0.0539  -0.0612   0.00    8.2
2024/08/22 11:03:14.000   36.068743052  140.128348079   113.4519   6  20   0.1899   0.1984   0.4599  -0.0411  -0.0535  -0.0613   0.00    8.1
2024/08/22 11:03:15.000   36.068743045  140.128348063   113.4470   6  20   0.1891   0.1978   0.4584  -0.0410  -0.0531  -0.0614   0.00    5.4
2024/08/22 11:03:16.000   36.068743030  140.128348044   113.4421   6  20   0.1883   0.1972   0.4568  -0.0410  -0.0527  -0.0615   0.00    5.4
2024/08/22 11:03:17.000   36.068743020  140.128348027   113.4406   6  20   0.1876   0.1967   0.4552  -0.0408  -0.0524  -0.0615   0.00    5.4
2024/08/22 11:03:18.000   36.068743034  140.128348012   113.4393   6  20   0.1868   0.1961   0.4536  -0.0408  -0.0519  -0.0616   0.00    5.4
2024/08/22 11:03:19.000   36.068743029  140.128347995   113.4373   6  20   0.1860   0.1956   0.4520  -0.0407  -0.0516  -0.0617   0.00    5.4
2024/08/22 11:03:20.000   36.068743037  140.128347980   113.4365   6  20   0.1853   0.1951   0.4505  -0.0405  -0.0511  -0.0619   0.00    5.4
2024/08/22 11:03:21.000   36.068743031  140.128347961   113.4363   6  20   0.1845   0.1945   0.4489  -0.0406  -0.0508  -0.0619   0.00    5.4
2024/08/22 11:03:22.000   36.068743023  140.128347959   113.4352   6  20   0.1838   0.1940   0.4474  -0.0405  -0.0504  -0.0620   0.00    5.4
2024/08/22 11:03:23.000   36.068743003  140.128347961   113.4318   6  20   0.1830   0.1934   0.4458  -0.0403  -0.0500  -0.0620   0.00    5.3
2024/08/22 11:03:24.000   36.068743000  140.128347957   113.4284   6  20   0.1823   0.1929   0.4443  -0.0403  -0.0497  -0.0621   0.00    5.3
2024/08/22 11:03:25.000   36.068742998  140.128347936   113.4338   6  20   0.1816   0.1924   0.4428  -0.0403  -0.0493  -0.0622   0.00    5.3
2024/08/22 11:03:26.000   36.068742979  140.128347951   113.4313   6  20   0.1808   0.1919   0.4413  -0.0402  -0.0489  -0.0623   0.00    5.3
2024/08/22 11:03:27.000   36.068742949  140.128347959   113.4308   6  20   0.1801   0.1914   0.4398  -0.0401  -0.0485  -0.0624   0.00    5.2
2024/08/22 11:03:28.000   36.068742943  140.128347953   113.4293   6  20   0.1794   0.1909   0.4383  -0.0401  -0.0481  -0.0625   0.00    5.2
2024/08/22 11:03:29.000   36.068742941  140.128347964   113.4253   6  20   0.1787   0.1903   0.4368  -0.0400  -0.0478  -0.0625   0.00    5.2
2024/08/22 11:03:30.000   36.068742932  140.128347967   113.4250   6  20   0.1780   0.1899   0.4353  -0.0399  -0.0473  -0.0626   0.00    5.2
2024/08/22 11:03:31.000   36.068742928  140.128347978   113.4219   6  20   0.1773   0.1893   0.4338  -0.0398  -0.0470  -0.0627   0.00    5.2
2024/08/22 11:03:32.000   36.068742900  140.128347996   113.4202   6  20   0.1766   0.1889   0.4323  -0.0398  -0.0467  -0.0628   0.00    5.1
2024/08/22 11:03:33.000   36.068742899  140.128347998   113.4138   6  20   0.1759   0.1883   0.4308  -0.0398  -0.0463  -0.0629   0.00    5.1
2024/08/22 11:03:34.000   36.068742892  140.128347997   113.4116   6  20   0.1752   0.1879   0.4294  -0.0397  -0.0459  -0.0629   0.00    5.1
2024/08/22 11:03:35.000   36.068742842  140.128348052   113.4065   6  20   0.1745   0.1874   0.4279  -0.0396  -0.0455  -0.0630   0.00    5.1
2024/08/22 11:03:36.000   36.068742852  140.128348065   113.4076   6  20   0.1739   0.1869   0.4264  -0.0396  -0.0452  -0.0631   0.00    5.1
2024/08/22 11:03:37.000   36.068742853  140.128348073   113.4086   6  20   0.1731   0.1864   0.4250  -0.0395  -0.0448  -0.0632   0.00    5.1
2024/08/22 11:03:38.000   36.068742848  140.128348062   113.4078   6  20   0.1725   0.1859   0.4236  -0.0394  -0.0444  -0.0632   0.00    5.1
2024/08/22 11:03:39.000   36.068742851  140.128348077   113.4041   6  20   0.1718   0.1855   0.4221  -0.0393  -0.0441  -0.0633   0.00    5.1
2024/08/22 11:03:40.000   36.068742828  140.128348099   113.3960   6  20   0.1712   0.1850   0.4207  -0.0393  -0.0437  -0.0634   0.00    5.1
2024/08/22 11:03:41.000   36.068742815  140.128348105   113.3961   6  20   0.1705   0.1845   0.4192  -0.0393  -0.0434  -0.0635   0.00    5.1
2024/08/22 11:03:42.000   36.068742806  140.128348114   113.3975   6  20   0.1698   0.1841   0.4179  -0.0393  -0.0430  -0.0636   0.00    5.0
2024/08/22 11:03:43.000   36.068742794  140.128348126   113.3949   6  20   0.1692   0.1836   0.4165  -0.0391  -0.0427  -0.0636   0.00    5.0
2024/08/22 11:03:44.000   36.068742788  140.128348141   113.3925   6  20   0.1686   0.1832   0.4150  -0.0390  -0.0423  -0.0637   0.00    5.0
2024/08/22 11:03:45.000   36.068742783  140.128348154   113.3889   6  20   0.1679   0.1827   0.4136  -0.0390  -0.0418  -0.0638   0.00    5.0
2024/08/22 11:03:46.000   36.068742780  140.128348152   113.3899   6  20   0.1673   0.1823   0.4122  -0.0389  -0.0415  -0.0638   0.00    5.0
2024/08/22 11:03:47.000   36.068742780  140.128348158   113.3888   6  20   0.1667   0.1818   0.4108  -0.0389  -0.0412  -0.0639   0.00    4.9
2024/08/22 11:03:48.000   36.068742772  140.128348155   113.3882   6  20   0.1660   0.1814   0.4095  -0.0389  -0.0408  -0.0640   0.00    4.9
2024/08/22 11:03:49.000   36.068742748  140.128348162   113.3887   6  20   0.1654   0.1810   0.4081  -0.0388  -0.0405  -0.0640   0.00    4.9
2024/08/22 11:03:50.000   36.068742726  140.128348174   113.3873   6  20   0.1648   0.1805   0.4067  -0.0388  -0.0402  -0.0641   0.00    4.9
2024/08/22 11:03:51.000   36.068742709  140.128348174   113.3847   6  20   0.1642   0.1801   0.4054  -0.0387  -0.0398  -0.0642   0.00    4.9
2024/08/22 11:03:52.000   36.068742685  140.128348174   113.3847   6  21   0.1635   0.1796   0.4040  -0.0386  -0.0393  -0.0642   0.00    4.9
2024/08/22 11:03:53.000   36.068742662  140.128348177   113.3830   6  21   0.1630   0.1792   0.4026  -0.0386  -0.0389  -0.0643   0.00    4.9
2024/08/22 11:03:54.000   36.068742642  140.128348170   113.3797   6  21   0.1624   0.1787   0.4012  -0.0386  -0.0384  -0.0644   0.00    4.9
2024/08/22 11:03:55.000   36.068742628  140.128348146   113.3861   6  21   0.1618   0.1783   0.3999  -0.0384  -0.0381  -0.0645   0.00    4.9
2024/08/22 11:03:56.000   36.068742601  140.128348148   113.3858   6  21   0.1612   0.1779   0.3986  -0.0385  -0.0376  -0.0645   0.00    4.9
2024/08/22 11:03:57.000   36.068742586  140.128348157   113.3845   6  21   0.1606   0.1775   0.3972  -0.0384  -0.0372  -0.0646   0.00    5.0
2024/08/22 11:03:58.000   36.068742571  140.128348171   113.3846   6  21   0.1600   0.1771   0.3959  -0.0383  -0.0368  -0.0646   0.00    5.0
2024/08/22 11:03:59.000   36.068742546  140.128348170   113.3841   6  21   0.1594   0.1766   0.3946  -0.0383  -0.0363  -0.0647   0.00    5.0
2024/08/22 11:04:00.000   36.068742505  140.128348164   113.3821   6  21   0.1588   0.1762   0.3933  -0.0383  -0.0359  -0.0647   0.00    5.0
2024/08/22 11:04:01.000   36.068742499  140.128348167   113.3817   6  21   0.1583   0.1758   0.3919  -0.0383  -0.0356  -0.0648   0.00    5.0
2024/08/22 11:04:02.000   36.068742496  140.128348160   113.3789   6  21   0.1577   0.1754   0.3906  -0.0382  -0.0352  -0.0649   0.00    5.1
2024/08/22 11:04:03.000   36.068742489  140.128348160   113.3788   6  21   0.1571   0.1750   0.3893  -0.0380  -0.0348  -0.0650   0.00    5.1
2024/08/22 11:04:04.000   36.068742476  140.128348171   113.3791   6  21   0.1565   0.1746   0.3880  -0.0382  -0.0344  -0.0650   0.00    5.1
2024/08/22 11:04:05.000   36.068742397  140.128348218   113.3794   6  21   0.1559   0.1742   0.3867  -0.0381  -0.0340  -0.0651   0.00    5.1
2024/08/22 11:04:06.000   36.068742386  140.128348216   113.3751   6  21   0.1554   0.1738   0.3854  -0.0381  -0.0336  -0.0651   0.00    5.1
2024/08/22 11:04:07.000   36.068742369  140.128348210   113.3744   6  21   0.1548   0.1734   0.3842  -0.0380  -0.0332  -0.0652   0.00    5.2
2024/08/22 11:04:08.000   36.068742363  140.128348203   113.3738   6  21   0.1543   0.1730   0.3829  -0.0379  -0.0328  -0.0652   0.00    5.2
2024/08/22 11:04:09.000   36.068742353  140.128348200   113.3708   6  21   0.1537   0.1726   0.3816  -0.0379  -0.0324  -0.0653   0.00    5.2
2024/08/22 11:04:10.000   36.068742351  140.128348199   113.3612   6  21   0.1532   0.1722   0.3804  -0.0378  -0.0320  -0.0653   0.00    5.2
2024/08/22 11:04:11.000   36.068742331  140.128348189   113.3571   6  21   0.1526   0.1718   0.3791  -0.0378  -0.0316  -0.0654   0.00    5.3
2024/08/22 11:04:12.000   36.068742327  140.128348197   113.3548   6  21   0.1521   0.1714   0.3778  -0.0378  -0.0311  -0.0654   0.00    5.3
2024/08/22 11:04:13.000   36.068742335  140.128348190   113.3532   6  21   0.1516   0.1711   0.3766  -0.0378  -0.0307  -0.0655   0.00    5.3
2024/08/22 11:04:14.000   36.068742332  140.128348177   113.3519   6  21   0.1510   0.1707   0.3754  -0.0377  -0.0303  -0.0655   0.00    5.4
2024/08/22 11:04:15.000   36.068742334  140.128348172   113.3443   6  21   0.1505   0.1703   0.3741  -0.0376  -0.0299  -0.0656   0.00    5.4
2024/08/22 11:04:16.000   36.068742333  140.128348169   113.3480   6  21   0.1500   0.1699   0.3729  -0.0376  -0.0295  -0.0656   0.00    5.4
2024/08/22 11:04:17.000   36.068742340  140.128348156   113.3459   6  21   0.1495   0.1695   0.3717  -0.0376  -0.0291  -0.0657   0.00    5.5
2024/08/22 11:04:18.000   36.068742341  140.128348161   113.3445   6  21   0.1489   0.1692   0.3704  -0.0376  -0.0287  -0.0657   0.00    5.5
2024/08/22 11:04:19.000   36.068742336  140.128348156   113.3435   6  21   0.1484   0.1688   0.3692  -0.0376  -0.0283  -0.0658   0.00    5.5
2024/08/22 11:04:20.000   36.068742335  140.128348154   113.3443   6  21   0.1479   0.1684   0.3680  -0.0375  -0.0279  -0.0658   0.00    5.6
2024/08/22 11:04:21.000   36.068742325  140.128348141   113.3457   6  21   0.1474   0.1681   0.3668  -0.0374  -0.0274  -0.0659   0.00    5.6
2024/08/22 11:04:22.000   36.068742324  140.128348136   113.3475   6  21   0.1468   0.1677   0.3656  -0.0374  -0.0270  -0.0658   0.00    5.6
2024/08/22 11:04:23.000   36.068742323  140.128348145   113.3461   6  21   0.1463   0.1674   0.3644  -0.0374  -0.0264  -0.0659   0.00    5.7
2024/08/22 11:04:24.000   36.068742318  140.128348144   113.3478   6  21   0.1459   0.1670   0.3632  -0.0373  -0.0260  -0.0659   0.00    5.7
2024/08/22 11:04:25.000   36.068742305  140.128348164   113.3374   6  21   0.1453   0.1666   0.3620  -0.0374  -0.0257  -0.0660   0.00    5.7
2024/08/22 11:04:26.000   36.068742300  140.128348163   113.3378   6  21   0.1448   0.1663   0.3608  -0.0373  -0.0252  -0.0660   0.00    5.8
2024/08/22 11:04:27.000   36.068742304  140.128348158   113.3392   6  21   0.1444   0.1659   0.3596  -0.0372  -0.0247  -0.0660   0.00    5.8
2024/08/22 11:04:28.000   36.068742301  140.128348162   113.3408   6  21   0.1438   0.1656   0.3584  -0.0372  -0.0242  -0.0661   0.00    5.8
2024/08/22 11:04:29.000   36.068742305  140.128348181   113.3424   6  21   0.1434   0.1652   0.3573  -0.0372  -0.0238  -0.0661   0.00    5.8
2024/08/22 11:04:30.000   36.068742276  140.128348218   113.3418   6  21   0.1429   0.1649   0.3561  -0.0371  -0.0233  -0.0661   0.00    5.8
2024/08/22 11:04:31.000   36.068742282  140.128348223   113.3417   6  21   0.1424   0.1645   0.3550  -0.0371  -0.0229  -0.0662   0.00    5.9
2024/08/22 11:04:32.000   36.068742290  140.128348227   113.3418   6  21   0.1419   0.1642   0.3538  -0.0371  -0.0224  -0.0662   0.00    5.9
2024/08/22 11:04:33.000   36.068742285  140.128348235   113.3408   6  21   0.1414   0.1639   0.3526  -0.0371  -0.0218  -0.0662   0.00    5.9
2024/08/22 11:04:34.000   36.068742287  140.128348244   113.3380   6  21   0.1409   0.1635   0.3515  -0.0371  -0.0213  -0.0662   0.00    5.9
2024/08/22 11:04:35.000   36.068742232  140.128348283   113.3355   6  21   0.1405   0.1632   0.3504  -0.0371  -0.0208  -0.0663   0.00    5.9
2024/08/22 11:04:36.000   36.068742219  140.128348271   113.3317   6  21   0.1400   0.1629   0.3492  -0.0370  -0.0204  -0.0663   0.00    6.0
2024/08/22 11:04:37.000   36.068742223  140.128348275   113.3292   6  21   0.1395   0.1625   0.3481  -0.0370  -0.0198  -0.0663   0.00    6.0
2024/08/22 11:04:38.000   36.068742225  140.128348276   113.3291   6  21   0.1391   0.1622   0.3469  -0.0369  -0.0192  -0.0664   0.00    6.1
2024/08/22 11:04:39.000   36.068742218  140.128348269   113.3255   6  21   0.1386   0.1619   0.3458  -0.0368  -0.0186  -0.0664   0.00    6.1
2024/08/22 11:04:40.000   36.068742197  140.128348276   113.3189   6  21   0.1381   0.1615   0.3447  -0.0369  -0.0183  -0.0664   0.00    6.1
2024/08/22 11:04:41.000   36.068742182  140.128348272   113.3137   6  21   0.1377   0.1612   0.3436  -0.0368  -0.0174  -0.0664   0.00    6.2
2024/08/22 11:04:42.000   36.068742155  140.128348276   113.3072   6  21   0.1372   0.1609   0.3425  -0.0368  -0.0170  -0.0664   0.00    6.2
2024/08/22 11:04:43.000   36.068742132  140.128348279   113.2974   6  21   0.1368   0.1606   0.3414  -0.0367  -0.0164  -0.0664   0.00    6.2
2024/08/22 11:04:44.000   36.068742101  140.128348261   113.2908   6  21   0.1363   0.1602   0.3403  -0.0367  -0.0157  -0.0664   0.00    6.2
2024/08/22 11:04:45.000   36.068742071  140.128348269   113.2915   6  21   0.1359   0.1599   0.3392  -0.0367  -0.0153  -0.0665   0.00    6.3
2024/08/22 11:04:46.000   36.068742043  140.128348262   113.2892   6  21   0.1354   0.1596   0.3381  -0.0366  -0.0143  -0.0665   0.00    6.3
2024/08/22 11:04:47.000   36.068742029  140.128348248   113.2857   6  21   0.1350   0.1593   0.3370  -0.0367  -0.0138  -0.0665   0.00    6.4
2024/08/22 11:04:48.000   36.068742017  140.128348243   113.2805   6  21   0.1345   0.1590   0.3359  -0.0366  -0.0131  -0.0665   0.00    6.4
2024/08/22 11:04:49.000   36.068742001  140.128348248   113.2761   6  21   0.1341   0.1587   0.3349  -0.0366  -0.0122  -0.0665   0.00    6.4
2024/08/22 11:04:50.000   36.068741991  140.128348244   113.2700   6  21   0.1337   0.1583   0.3338  -0.0365  -0.0114  -0.0665   0.00    6.4
2024/08/22 11:04:51.000   36.068741968  140.128348254   113.2631   6  21   0.1332   0.1580   0.3327  -0.0365  -0.0102  -0.0666   0.00    6.4
2024/08/22 11:04:52.000   36.068741949  140.128348270   113.2596   6  21   0.1328   0.1577   0.3317  -0.0364  -0.0096  -0.0665   0.00    6.5
2024/08/22 11:04:53.000   36.068741934  140.128348297   113.2540   6  21   0.1324   0.1574   0.3306  -0.0364  -0.0083  -0.0666   0.00    6.5
2024/08/22 11:04:54.000   36.068741919  140.128348308   113.2477   6  21   0.1319   0.1571   0.3295  -0.0365  -0.0073  -0.0666   0.00    6.5
2024/08/22 11:04:55.000   36.068741881  140.128348284   113.2417   6  21   0.1315   0.1568   0.3285  -0.0364  -0.0057  -0.0666   0.00    6.6
2024/08/22 11:04:56.000   36.068741889  140.128348297   113.2354   6  21   0.1310   0.1565   0.3274  -0.0365  -0.0039  -0.0665   0.00    6.6
2024/08/22 11:04:57.000   36.068741892  140.128348297   113.2311   6  21   0.1307   0.1562   0.3264  -0.0363  -0.0003  -0.0666   0.00    6.6
2024/08/22 11:04:58.000   36.068741865  140.128348311   113.2274   6  21   0.1303   0.1559   0.3254  -0.0363   0.0047  -0.0666   0.00    6.7
2024/08/22 11:04:59.000   36.068741851  140.128348330   113.2225   6  21   0.1298   0.1556   0.3243  -0.0363   0.0065  -0.0665   0.00    6.7
2024/08/22 11:05:00.000   36.068741817  140.128348358   113.2143   6  21   0.1294   0.1553   0.3233  -0.0362   0.0075  -0.0666   0.00    6.7
2024/08/22 11:05:01.000   36.068741805  140.128348363   113.2074   6  21   0.1290   0.1550   0.3223  -0.0363   0.0085  -0.0666   0.00    6.8
2024/08/22 11:05:02.000   36.068741792  140.128348371   113.2007   6  21   0.1286   0.1547   0.3213  -0.0362   0.0096  -0.0665   0.00    6.8
2024/08/22 11:05:03.000   36.068741787  140.128348388   113.1944   6  21   0.1282   0.1544   0.3202  -0.0361   0.0107  -0.0666   0.00    6.8
2024/08/22 11:05:04.000   36.068741783  140.128348404   113.1899   6  21   0.1278   0.1542   0.3192  -0.0361   0.0114  -0.0665   0.00    6.8
2024/08/22 11:05:05.000   36.068741748  140.128348462   113.1917   6  21   0.1274   0.1539   0.3182  -0.0361   0.0121  -0.0665   0.00    6.9
2024/08/22 11:05:06.000   36.068741743  140.128348460   113.1864   6  21   0.1270   0.1536   0.3172  -0.0361   0.0128  -0.0665   0.00    6.9
2024/08/22 11:05:07.000   36.068741754  140.128348469   113.1804   6  21   0.1266   0.1533   0.3162  -0.0360   0.0137  -0.0665   0.00    6.9
2024/08/22 11:05:08.000   36.068741755  140.128348473   113.1735   6  21   0.1262   0.1530   0.3152  -0.0360   0.0141  -0.0666   0.00    7.0
2024/08/22 11:05:09.000   36.068741745  140.128348483   113.1688   6  21   0.1257   0.1527   0.3143  -0.0360   0.0147  -0.0665   0.00    7.0
2024/08/22 11:05:10.000   36.068741714  140.128348523   113.1547   6  21   0.1254   0.1524   0.3132  -0.0360   0.0152  -0.0665   0.00    7.0
2024/08/22 11:05:11.000   36.068741706  140.128348532   113.1496   6  21   0.1250   0.1521   0.3123  -0.0359   0.0157  -0.0665   0.00    7.1
2024/08/22 11:05:12.000   36.068741716  140.128348539   113.1407   6  21   0.1246   0.1519   0.3113  -0.0359   0.0162  -0.0665   0.00    7.1
2024/08/22 11:05:13.000   36.068741723  140.128348547   113.1300   6  21   0.1242   0.1516   0.3103  -0.0359   0.0167  -0.0665   0.00    7.2
2024/08/22 11:05:14.000   36.068741729  140.128348564   113.1226   6  21   0.1238   0.1513   0.3094  -0.0357   0.0172  -0.0665   0.00    7.2
2024/08/22 11:05:15.000   36.068741690  140.128348605   113.1163   6  21   0.1235   0.1510   0.3084  -0.0359   0.0176  -0.0664   0.00    7.2
2024/08/22 11:05:16.000   36.068741685  140.128348629   113.1111   6  21   0.1230   0.1508   0.3074  -0.0358   0.0183  -0.0664   0.00    7.3
2024/08/22 11:05:17.000   36.068741677  140.128348640   113.1025   6  21   0.1227   0.1505   0.3065  -0.0358   0.0186  -0.0664   0.00    7.3
2024/08/22 11:05:18.000   36.068741666  140.128348658   113.0980   6  21   0.1223   0.1502   0.3055  -0.0357   0.0191  -0.0665   0.00    7.3
2024/08/22 11:05:19.000   36.068741650  140.128348678   113.0961   6  21   0.1220   0.1499   0.3046  -0.0357   0.0194  -0.0664   0.00    7.3
2024/08/22 11:05:20.000   36.068741642  140.128348690   113.0928   6  21   0.1216   0.1497   0.3036  -0.0357   0.0198  -0.0664   0.00    7.4
2024/08/22 11:05:21.000   36.068741634  140.128348707   113.0874   6  21   0.1212   0.1494   0.3027  -0.0356   0.0201  -0.0664   0.00    7.4
2024/08/22 11:05:22.000   36.068741622  140.128348740   113.0805   6  21   0.1208   0.1491   0.3018  -0.0357   0.0206  -0.0663   0.00    7.4
2024/08/22 11:05:23.000   36.068741621  140.128348765   113.0727   6  21   0.1204   0.1489   0.3008  -0.0357   0.0210  -0.0663   0.00    7.4
2024/08/22 11:05:24.000   36.068741625  140.128348780   113.0654   6  21   0.1201   0.1486   0.2999  -0.0356   0.0213  -0.0663   0.00    7.5
2024/08/22 11:05:25.000   36.068741590  140.128348859   113.0597   6  21   0.1197   0.1483   0.2990  -0.0356   0.0216  -0.0663   0.00    7.5
2024/08/22 11:05:26.000   36.068741588  140.128348881   113.0566   6  21   0.1193   0.1480   0.2981  -0.0356   0.0220  -0.0663   0.00    7.5
2024/08/22 11:05:27.000   36.068741588  140.128348905   113.0544   6  21   0.1190   0.1478   0.2971  -0.0356   0.0223  -0.0662   0.00    7.5
2024/08/22 11:05:28.000   36.068741592  140.128348935   113.0495   6  21   0.1187   0.1475   0.2962  -0.0354   0.0226  -0.0662   0.00    7.5
2024/08/22 11:05:29.000   36.068741592  140.128348968   113.0442   6  21   0.1183   0.1473   0.2953  -0.0355   0.0230  -0.0662   0.00    7.6
2024/08/22 11:05:30.000   36.068741584  140.128349010   113.0412   6  21   0.1180   0.1470   0.2944  -0.0353   0.0234  -0.0662   0.00    7.6
2024/08/22 11:05:31.000   36.068741577  140.128349041   113.0376   6  21   0.1175   0.1468   0.2935  -0.0355   0.0236  -0.0661   0.00    7.6
2024/08/22 11:05:32.000   36.068741572  140.128349081   113.0323   6  21   0.1172   0.1465   0.2926  -0.0353   0.0240  -0.0661   0.00    7.6
2024/08/22 11:05:33.000   36.068741559  140.128349119   113.0266   6  21   0.1169   0.1463   0.2917  -0.0353   0.0242  -0.0661   0.00    7.6
2024/08/22 11:05:34.000   36.068741568  140.128349162   113.0215   6  21   0.1165   0.1460   0.2909  -0.0353   0.0245  -0.0661   0.00    7.6
2024/08/22 11:05:35.000   36.068741495  140.128349252   113.0251   6  21   0.1162   0.1457   0.2900  -0.0352   0.0247  -0.0660   0.00    7.6
2024/08/22 11:05:36.000   36.068741492  140.128349271   113.0220   6  21   0.1158   0.1455   0.2891  -0.0354   0.0250  -0.0660   0.00    7.6
2024/08/22 11:05:37.000   36.068741483  140.128349274   113.0175   6  21   0.1155   0.1452   0.2882  -0.0352   0.0253  -0.0660   0.00    7.7
2024/08/22 11:05:38.000   36.068741498  140.128349296   113.0153   6  21   0.1151   0.1450   0.2873  -0.0353   0.0255  -0.0660   0.00    7.7
2024/08/22 11:05:39.000   36.068741487  140.128349317   113.0100   6  21   0.1148   0.1448   0.2865  -0.0352   0.0259  -0.0659   0.00    7.7
2024/08/22 11:05:40.000   36.068741503  140.128349367   113.0030   6  21   0.1145   0.1445   0.2856  -0.0351   0.0261  -0.0659   0.00    7.7
2024/08/22 11:05:41.000   36.068741490  140.128349396   113.0003   6  21   0.1142   0.1442   0.2848  -0.0351   0.0264  -0.0659   0.00    7.7
2024/08/22 11:05:42.000   36.068741483  140.128349439   112.9979   6  21   0.1139   0.1440   0.2839  -0.0351   0.0266  -0.0658   0.00    7.8
2024/08/22 11:05:43.000   36.068741467  140.128349470   112.9944   6  21   0.1135   0.1437   0.2830  -0.0351   0.0268  -0.0659   0.00    7.8
2024/08/22 11:05:44.000   36.068741467  140.128349499   112.9913   6  21   0.1131   0.1435   0.2822  -0.0351   0.0270  -0.0657   0.00    7.8
2024/08/22 11:05:45.000   36.068741460  140.128349547   112.9912   6  21   0.1128   0.1433   0.2813  -0.0351   0.0273  -0.0656   0.00    7.8
2024/08/22 11:05:46.000   36.068741455  140.128349570   112.9911   6  21   0.1125   0.1430   0.2805  -0.0350   0.0275  -0.0657   0.00    7.9
2024/08/22 11:05:47.000   36.068741450  140.128349592   112.9893   6  21   0.1122   0.1428   0.2797  -0.0349   0.0277  -0.0657   0.00    7.9
2024/08/22 11:05:48.000   36.068741447  140.128349616   112.9858   6  21   0.1118   0.1425   0.2788  -0.0351   0.0279  -0.0656   0.00    7.9
2024/08/22 11:05:49.000   36.068741442  140.128349646   112.9836   6  21   0.1115   0.1423   0.2780  -0.0349   0.0283  -0.0655   0.00    7.9
2024/08/22 11:05:50.000   36.068741434  140.128349677   112.9807   6  21   0.1112   0.1420   0.2772  -0.0350   0.0284  -0.0655   0.00    8.0
2024/08/22 11:05:51.000   36.068741426  140.128349687   112.9786   6  21   0.1108   0.1418   0.2764  -0.0350   0.0286  -0.0654   0.00    8.0
2024/08/22 11:05:52.000   36.068741417  140.128349714   112.9739   6  21   0.1105   0.1416   0.2755  -0.0349   0.0288  -0.0654   0.00    8.0
2024/08/22 11:05:53.000   36.068741416  140.128349752   112.9728   6  21   0.1102   0.1413   0.2747  -0.0349   0.0290  -0.0654   0.00    8.1
2024/08/22 11:05:54.000   36.068741413  140.128349766   112.9716   6  21   0.1099   0.1411   0.2739  -0.0350   0.0293  -0.0654   0.00    8.1
2024/08/22 11:05:55.000   36.068741393  140.128349785   112.9686   6  21   0.1096   0.1409   0.2731  -0.0349   0.0294  -0.0653   0.00    8.1
2024/08/22 11:05:56.000   36.068741396  140.128349798   112.9663   6  21   0.1093   0.1406   0.2723  -0.0348   0.0295  -0.0653   0.00    8.2
2024/08/22 11:05:57.000   36.068741393  140.128349814   112.9651   6  21   0.1090   0.1404   0.2715  -0.0348   0.0297  -0.0652   0.00    8.2
2024/08/22 11:05:58.000   36.068741390  140.128349835   112.9622   6  21   0.1087   0.1402   0.2707  -0.0347   0.0299  -0.0652   0.00    8.2
2024/08/22 11:05:59.000   36.068741367  140.128349837   112.9585   6  21   0.1083   0.1399   0.2699  -0.0348   0.0301  -0.0652   0.00    8.3
2024/08/22 11:06:00.000   36.068741377  140.128349838   112.9505   6  21   0.1081   0.1397   0.2691  -0.0347   0.0303  -0.0651   0.00    8.3
2024/08/22 11:06:01.000   36.068741361  140.128349854   112.9477   6  21   0.1078   0.1395   0.2683  -0.0346   0.0305  -0.0651   0.00    8.3
2024/08/22 11:06:02.000   36.068741357  140.128349871   112.9456   6  21   0.1075   0.1392   0.2676  -0.0347   0.0306  -0.0650   0.00    8.4
2024/08/22 11:06:03.000   36.068741354  140.128349873   112.9452   6  21   0.1072   0.1391   0.2668  -0.0346   0.0309  -0.0649   0.00    8.4
2024/08/22 11:06:04.000   36.068741367  140.128349879   112.9442   6  21   0.1069   0.1389   0.2660  -0.0345   0.0312  -0.0649   0.00    8.4
2024/08/22 11:06:05.000   36.068741320  140.128349912   112.9397   6  21   0.1066   0.1386   0.2653  -0.0346   0.0312  -0.0649   0.00    8.5
2024/08/22 11:06:06.000   36.068741314  140.128349921   112.9368   6  21   0.1063   0.1384   0.2645  -0.0345   0.0314  -0.0648   0.00    8.5
2024/08/22 11:06:07.000   36.068741308  140.128349915   112.9334   6  21   0.1059   0.1381   0.2637  -0.0346   0.0315  -0.0647   0.00    8.6
2024/08/22 11:06:08.000   36.068741304  140.128349948   112.9317   6  21   0.1057   0.1379   0.2629  -0.0344   0.0317  -0.0647   0.00    8.6
2024/08/22 11:06:09.000   36.068741300  140.128349946   112.9317   6  21   0.1054   0.1377   0.2622  -0.0344   0.0319  -0.0646   0.00    8.6
2024/08/22 11:06:10.000   36.068741290  140.128349944   112.9222   6  21   0.1051   0.1374   0.2614  -0.0344   0.0320  -0.0646   0.00    8.7
2024/08/22 11:06:11.000   36.068741297  140.128349947   112.9169   6  21   0.1048   0.1373   0.2607  -0.0343   0.0322  -0.0645   0.00    8.7
2024/08/22 11:06:12.000   36.068741296  140.128349943   112.9126   6  21   0.1045   0.1370   0.2599  -0.0344   0.0323  -0.0645   0.00    8.8
2024/08/22 11:06:13.000   36.068741307  140.128349954   112.9098   6  21   0.1042   0.1368   0.2592  -0.0344   0.0325  -0.0644   0.00    8.8
2024/08/22 11:06:14.000   36.068741298  140.128349946   112.9084   6  21   0.1039   0.1366   0.2584  -0.0344   0.0326  -0.0644   0.00    8.8
2024/08/22 11:06:15.000   36.068741286  140.128349975   112.9022   6  21   0.1036   0.1364   0.2577  -0.0343   0.0328  -0.0643   0.00    8.9
2024/08/22 11:06:16.000   36.068741291  140.128349973   112.8985   6  21   0.1033   0.1362   0.2570  -0.0343   0.0329  -0.0642   0.00    8.9
2024/08/22 11:06:17.000   36.068741298  140.128349973   112.8960   6  21   0.1031   0.1359   0.2562  -0.0343   0.0330  -0.0642   0.00    9.0
2024/08/22 11:06:18.000   36.068741287  140.128349974   112.8942   6  21   0.1028   0.1357   0.2555  -0.0343   0.0331  -0.0642   0.00    9.0
2024/08/22 11:06:19.000   36.068741298  140.128349989   112.8953   6  21   0.1025   0.1355   0.2548  -0.0342   0.0333  -0.0641   0.00    9.0
2024/08/22 11:06:20.000   36.068741276  140.128350001   112.8890   6  21   0.1022   0.1353   0.2540  -0.0342   0.0334  -0.0641   0.00    9.1
2024/08/22 11:06:21.000   36.068741274  140.128350022   112.8842   6  21   0.1020   0.1351   0.2533  -0.0341   0.0336  -0.0640   0.00    9.1
2024/08/22 11:06:22.000   36.068741279  140.128350024   112.8805   6  21   0.1017   0.1348   0.2526  -0.0342   0.0338  -0.0640   0.00    9.2
2024/08/22 11:06:23.000   36.068741267  140.128350044   112.8781   6  21   0.1014   0.1347   0.2519  -0.0341   0.0340  -0.0638   0.00    9.2
2024/08/22 11:06:24.000   36.068741265  140.128350047   112.8737   6  21   0.1011   0.1344   0.2512  -0.0342   0.0340  -0.0638   0.00    9.3
2024/08/22 11:06:25.000   36.068741229  140.128350114   112.8563   6  21   0.1008   0.1342   0.2505  -0.0342   0.0341  -0.0638   0.00    9.3
2024/08/22 11:06:26.000   36.068741237  140.128350115   112.8531   6  21   0.1006   0.1340   0.2498  -0.0340   0.0343  -0.0637   0.00    9.4
2024/08/22 11:06:27.000   36.068741245  140.128350124   112.8503   6  21   0.1003   0.1338   0.2491  -0.0341   0.0344  -0.0636   0.00    9.4
2024/08/22 11:06:28.000   36.068741241  140.128350146   112.8469   6  21   0.1001   0.1336   0.2484  -0.0340   0.0345  -0.0636   0.00    9.4
2024/08/22 11:06:29.000   36.068741254  140.128350159   112.8406   6  21   0.0998   0.1334   0.2477  -0.0340   0.0347  -0.0635   0.00    9.5
2024/08/22 11:06:30.000   36.068741277  140.128350178   112.8294   6  21   0.0996   0.1332   0.2470  -0.0338   0.0348  -0.0635   0.00    9.6
2024/08/22 11:06:31.000   36.068741279  140.128350188   112.8276   6  21   0.0992   0.1330   0.2463  -0.0340   0.0349  -0.0634   0.00    9.6
2024/08/22 11:06:32.000   36.068741286  140.128350194   112.8255   6  21   0.0990   0.1328   0.2456  -0.0339   0.0350  -0.0633   0.00    9.7
2024/08/22 11:06:33.000   36.068741290  140.128350194   112.8265   6  21   0.0987   0.1326   0.2449  -0.0339   0.0351  -0.0633   0.00    9.7
2024/08/22 11:06:34.000   36.068741307  140.128350212   112.8266   6  21   0.0984   0.1324   0.2443  -0.0338   0.0352  -0.0632   0.00    9.8
2024/08/22 11:06:35.000   36.068741267  140.128350256   112.8249   6  21   0.0982   0.1322   0.2436  -0.0339   0.0353  -0.0632   0.00    9.9
2024/08/22 11:06:36.000   36.068741278  140.128350250   112.8245   6  21   0.0980   0.1319   0.2429  -0.0338   0.0354  -0.0631   0.00    9.9
2024/08/22 11:06:37.000   36.068741286  140.128350247   112.8248   6  21   0.0976   0.1317   0.2422  -0.0339   0.0355  -0.0630   0.00   10.0
2024/08/22 11:06:38.000   36.068741305  140.128350256   112.8256   6  21   0.0975   0.1316   0.2416  -0.0337   0.0357  -0.0630   0.00   10.0
2024/08/22 11:06:39.000   36.068741309  140.128350253   112.8302   6  21   0.0972   0.1314   0.2409  -0.0337   0.0357  -0.0629   0.00   10.1
2024/08/22 11:06:40.000   36.068741328  140.128350263   112.8271   6  21   0.0969   0.1312   0.2402  -0.0338   0.0358  -0.0628   0.00   10.1
2024/08/22 11:06:41.000   36.068741344  140.128350256   112.8280   6  21   0.0967   0.1310   0.2396  -0.0338   0.0359  -0.0628   0.00   10.2
2024/08/22 11:06:42.000   36.068741354  140.128350259   112.8295   6  21   0.0964   0.1308   0.2390  -0.0337   0.0361  -0.0627   0.00   10.2
2024/08/22 11:06:43.000   36.068741368  140.128350252   112.8332   6  21   0.0961   0.1306   0.2383  -0.0337   0.0362  -0.0626   0.00   10.3
2024/08/22 11:06:44.000   36.068741374  140.128350257   112.8348   6  21   0.0959   0.1304   0.2376  -0.0337   0.0362  -0.0626   0.00   10.3
2024/08/22 11:06:45.000   36.068741395  140.128350228   112.8396   6  21   0.0956   0.1302   0.2370  -0.0337   0.0363  -0.0625   0.00   10.4
2024/08/22 11:06:46.000   36.068741404  140.128350233   112.8398   6  21   0.0954   0.1300   0.2364  -0.0337   0.0364  -0.0624   0.00   10.5
2024/08/22 11:06:47.000   36.068741414  140.128350225   112.8451   6  21   0.0952   0.1298   0.2357  -0.0336   0.0366  -0.0624   0.00   10.5
2024/08/22 11:06:48.000   36.068741425  140.128350218   112.8511   6  21   0.0949   0.1296   0.2351  -0.0337   0.0366  -0.0623   0.00   10.6
2024/08/22 11:06:49.000   36.068741433  140.128350217   112.8514   6  21   0.0947   0.1294   0.2345  -0.0336   0.0367  -0.0622   0.00   10.7
2024/08/22 11:06:50.000   36.068741460  140.128350194   112.8517   6  21   0.0944   0.1292   0.2338  -0.0336   0.0368  -0.0622   0.00   10.8
2024/08/22 11:06:51.000   36.068741471  140.128350186   112.8554   6  21   0.0942   0.1290   0.2332  -0.0335   0.0370  -0.0621   0.00   10.9
2024/08/22 11:06:52.000   36.068741500  140.128350161   112.8585   6  21   0.0940   0.1288   0.2326  -0.0334   0.0370  -0.0620   0.00   11.0
2024/08/22 11:06:53.000   36.068741508  140.128350148   112.8640   6  21   0.0937   0.1286   0.2320  -0.0335   0.0370  -0.0620   0.00   11.1
2024/08/22 11:06:54.000   36.068741526  140.128350134   112.8683   6  21   0.0935   0.1284   0.2313  -0.0334   0.0371  -0.0619   0.00   11.2
2024/08/22 11:06:55.000   36.068741500  140.128350135   112.8817   6  21   0.0932   0.1282   0.2307  -0.0334   0.0372  -0.0618   0.00   11.3
2024/08/22 11:06:56.000   36.068741505  140.128350127   112.8813   6  21   0.0930   0.1281   0.2301  -0.0334   0.0373  -0.0617   0.00   11.4
2024/08/22 11:06:57.000   36.068741513  140.128350119   112.8819   6  21   0.0928   0.1279   0.2295  -0.0333   0.0374  -0.0617   0.00   11.5
2024/08/22 11:06:58.000   36.068741530  140.128350115   112.8824   6  21   0.0925   0.1277   0.2289  -0.0334   0.0375  -0.0616   0.00   11.6
2024/08/22 11:06:59.000   36.068741537  140.128350110   112.8832   6  21   0.0923   0.1275   0.2282  -0.0334   0.0376  -0.0615   0.00   11.7
2024/08/22 11:07:00.000   36.068741528  140.128350128   112.8816   6  21   0.0920   0.1273   0.2277  -0.0333   0.0376  -0.0615   0.00   11.9
2024/08/22 11:07:01.000   36.068741539  140.128350116   112.8814   6  21   0.0919   0.1271   0.2271  -0.0332   0.0377  -0.0614   0.00   12.0
2024/08/22 11:07:02.000   36.068741559  140.128350111   112.8807   6  21   0.0916   0.1270   0.2265  -0.0331   0.0378  -0.0614   0.00   12.2
2024/08/22 11:07:03.000   36.068741570  140.128350110   112.8830   6  21   0.0914   0.1268   0.2259  -0.0332   0.0379  -0.0613   0.00   12.3
